[
  {
    "State": "استان اردبیل",
    "City": "تازه‌کندانگوت",
    "latitude": "39.042881",
    "longitude": "47.754331"
  },
  {
    "State": "استان اردبیل",
    "City": "خلخال",
    "latitude": "37.624719",
    "longitude": "48.53135"
  },
  {
    "State": "استان اردبیل",
    "City": "کلور",
    "latitude": "37.388331",
    "longitude": "48.71865"
  },
  {
    "State": "استان اردبیل",
    "City": "جعفرآباد",
    "latitude": "39.479506",
    "longitude": "48.064117"
  },
  {
    "State": "استان اردبیل",
    "City": "گیوی",
    "latitude": "37.686836",
    "longitude": "48.337319"
  },
  {
    "State": "استان اردبیل",
    "City": "مشگین‌شهر",
    "latitude": "38.398111",
    "longitude": "47.677711"
  },
  {
    "State": "استان اردبیل",
    "City": "عنبران",
    "latitude": "38.48955",
    "longitude": "48.4337"
  },
  {
    "State": "استان اردبیل",
    "City": "کوراییم",
    "latitude": "37.952706",
    "longitude": "48.233942"
  },
  {
    "State": "استان اردبیل",
    "City": "گرمی",
    "latitude": "39.022022",
    "longitude": "48.094689"
  },
  {
    "State": "استان اردبیل",
    "City": "اردبیل",
    "latitude": "38.24848",
    "longitude": "48.30013"
  },
  {
    "State": "استان اردبیل",
    "City": "اصلاندوز",
    "latitude": "39.443139",
    "longitude": "47.405497"
  },
  {
    "State": "استان اردبیل",
    "City": "لاهرود",
    "latitude": "38.513319",
    "longitude": "47.8264"
  },
  {
    "State": "استان اردبیل",
    "City": "ابی‌بیگلو",
    "latitude": "38.283356",
    "longitude": "48.552917"
  },
  {
    "State": "استان اردبیل",
    "City": "هیر",
    "latitude": "38.079358",
    "longitude": "48.505597"
  },
  {
    "State": "استان اردبیل",
    "City": "هشجین",
    "latitude": "37.366581",
    "longitude": "48.318039"
  },
  {
    "State": "استان اردبیل",
    "City": "پارس‌آباد",
    "latitude": "39.650319",
    "longitude": "47.91355"
  },
  {
    "State": "استان اردبیل",
    "City": "سرعین",
    "latitude": "38.151875",
    "longitude": "48.071203"
  },
  {
    "State": "استان اردبیل",
    "City": "بیله سوار",
    "latitude": "39.381094",
    "longitude": "48.345625"
  },
  {
    "State": "استان اردبیل",
    "City": "رضی",
    "latitude": "38.629414",
    "longitude": "48.097964"
  },
  {
    "State": "استان اردبیل",
    "City": "نمین",
    "latitude": "38.426333",
    "longitude": "48.482625"
  },
  {
    "State": "استان اردبیل",
    "City": "نیر",
    "latitude": "38.03018",
    "longitude": "47.99274"
  },
  {
    "State": "استان اصفهان",
    "City": "علویچه",
    "latitude": "33.05745",
    "longitude": "51.088789"
  },
  {
    "State": "استان اصفهان",
    "City": "نوش‌آباد",
    "latitude": "34.08034",
    "longitude": "51.43565"
  },
  {
    "State": "استان اصفهان",
    "City": "بهارستان",
    "latitude": "32.48979",
    "longitude": "51.77608"
  },
  {
    "State": "استان اصفهان",
    "City": "اردستان",
    "latitude": "33.373131",
    "longitude": "52.368789"
  },
  {
    "State": "استان اصفهان",
    "City": "کهریزسنگ",
    "latitude": "32.624908",
    "longitude": "51.475389"
  },
  {
    "State": "استان اصفهان",
    "City": "خوراسگان",
    "latitude": "32.650831",
    "longitude": "51.7547"
  },
  {
    "State": "استان اصفهان",
    "City": "نصرآباد",
    "latitude": "35.418006",
    "longitude": "60.31615"
  },
  {
    "State": "استان اصفهان",
    "City": "تیران",
    "latitude": "32.70391",
    "longitude": "51.15253"
  },
  {
    "State": "استان اصفهان",
    "City": "خالدآباد",
    "latitude": "33.6981",
    "longitude": "51.9885"
  },
  {
    "State": "استان اصفهان",
    "City": "خمینی شهر",
    "latitude": "32.69158",
    "longitude": "51.55077"
  },
  {
    "State": "استان اصفهان",
    "City": "افوس",
    "latitude": "33.023236",
    "longitude": "50.092789"
  },
  {
    "State": "استان اصفهان",
    "City": "گلپایگان",
    "latitude": "33.464181",
    "longitude": "50.27545"
  },
  {
    "State": "استان اصفهان",
    "City": "باغ بهادران",
    "latitude": "32.37466",
    "longitude": "51.18615"
  },
  {
    "State": "استان اصفهان",
    "City": "شاهین شهر",
    "latitude": "32.86083",
    "longitude": "51.55031"
  },
  {
    "State": "استان اصفهان",
    "City": "بادرود",
    "latitude": "33.695361",
    "longitude": "51.997469"
  },
  {
    "State": "استان اصفهان",
    "City": "سده لنجان",
    "latitude": "32.37947",
    "longitude": "51.30654"
  },
  {
    "State": "استان اصفهان",
    "City": "دولت‌آباد",
    "latitude": "35.28264",
    "longitude": "59.51861"
  },
  {
    "State": "استان اصفهان",
    "City": "دولت‌آباد",
    "latitude": "32.80423",
    "longitude": "51.69494"
  },
  {
    "State": "استان اصفهان",
    "City": "خوانسار",
    "latitude": "33.2306",
    "longitude": "50.321108"
  },
  {
    "State": "استان اصفهان",
    "City": "نجف‌آباد",
    "latitude": "32.63311",
    "longitude": "51.3655"
  },
  {
    "State": "استان اصفهان",
    "City": "زیباشهر",
    "latitude": "32.381392",
    "longitude": "51.566992"
  },
  {
    "State": "استان اصفهان",
    "City": "فولادشهر",
    "latitude": "32.49126",
    "longitude": "51.40828"
  },
  {
    "State": "استان اصفهان",
    "City": "سمیرم",
    "latitude": "31.42148",
    "longitude": "51.57245"
  },
  {
    "State": "استان اصفهان",
    "City": "اصفهان",
    "latitude": "32.68056",
    "longitude": "51.65259"
  },
  {
    "State": "استان اصفهان",
    "City": "کلیشادوسودرجان",
    "latitude": "32.54225",
    "longitude": "51.53477"
  },
  {
    "State": "استان اصفهان",
    "City": "حنا",
    "latitude": "31.19997",
    "longitude": "51.7222"
  },
  {
    "State": "استان اصفهان",
    "City": "فریدون‌شهر",
    "latitude": "32.94075",
    "longitude": "50.124831"
  },
  {
    "State": "استان اصفهان",
    "City": "برزک",
    "latitude": "33.782542",
    "longitude": "51.2267"
  },
  {
    "State": "استان اصفهان",
    "City": "کرکوند",
    "latitude": "32.34271",
    "longitude": "51.44509"
  },
  {
    "State": "استان اصفهان",
    "City": "چادگان",
    "latitude": "32.77094",
    "longitude": "50.62477"
  },
  {
    "State": "استان اصفهان",
    "City": "خورزوق",
    "latitude": "32.77847",
    "longitude": "51.64773"
  },
  {
    "State": "استان اصفهان",
    "City": "جندق",
    "latitude": "34.04213",
    "longitude": "54.41431"
  },
  {
    "State": "استان اصفهان",
    "City": "سفیدشهر",
    "latitude": "34.1273",
    "longitude": "51.3499"
  },
  {
    "State": "استان اصفهان",
    "City": "گز",
    "latitude": "32.80911",
    "longitude": "51.61841"
  },
  {
    "State": "استان اصفهان",
    "City": "دولت‌آباد",
    "latitude": "35.0923",
    "longitude": "60.8774"
  },
  {
    "State": "استان اصفهان",
    "City": "مهاباد",
    "latitude": "33.524089",
    "longitude": "52.219286"
  },
  {
    "State": "استان اصفهان",
    "City": "خور",
    "latitude": "33.77547",
    "longitude": "55.08547"
  },
  {
    "State": "استان اصفهان",
    "City": "ابریشم",
    "latitude": "32.55626",
    "longitude": "51.57289"
  },
  {
    "State": "استان اصفهان",
    "City": "بویین و میاندشت",
    "latitude": "33.075739",
    "longitude": "50.163181"
  },
  {
    "State": "استان اصفهان",
    "City": "نایین",
    "latitude": "32.86261",
    "longitude": "53.08484"
  },
  {
    "State": "استان اصفهان",
    "City": "اژیه",
    "latitude": "32.43783",
    "longitude": "52.37885"
  },
  {
    "State": "استان اصفهان",
    "City": "نیاسر",
    "latitude": "33.971069",
    "longitude": "51.143511"
  },
  {
    "State": "استان اصفهان",
    "City": "سگزی",
    "latitude": "32.692572",
    "longitude": "52.122886"
  },
  {
    "State": "استان اصفهان",
    "City": "منظریه",
    "latitude": "31.944661",
    "longitude": "51.871589"
  },
  {
    "State": "استان اصفهان",
    "City": "داران",
    "latitude": "32.98419",
    "longitude": "50.41252"
  },
  {
    "State": "استان اصفهان",
    "City": "دهاقان",
    "latitude": "31.93489",
    "longitude": "51.65251"
  },
  {
    "State": "استان اصفهان",
    "City": "گلشهر",
    "latitude": "33.525136",
    "longitude": "50.488036"
  },
  {
    "State": "استان اصفهان",
    "City": "آران و بیدگل",
    "latitude": "34.07019",
    "longitude": "51.47848"
  },
  {
    "State": "استان اصفهان",
    "City": "دهق",
    "latitude": "33.1017",
    "longitude": "50.966289"
  },
  {
    "State": "استان اصفهان",
    "City": "هرند",
    "latitude": "32.56183",
    "longitude": "52.43571"
  },
  {
    "State": "استان اصفهان",
    "City": "ورنامخواست",
    "latitude": "32.35738",
    "longitude": "51.38769"
  },
  {
    "State": "استان اصفهان",
    "City": "قهدریجان",
    "latitude": "32.57717",
    "longitude": "51.45392"
  },
  {
    "State": "استان اصفهان",
    "City": "رضوانشهر",
    "latitude": "32.70422",
    "longitude": "51.10432"
  },
  {
    "State": "استان اصفهان",
    "City": "شهرضا",
    "latitude": "32.0121",
    "longitude": "51.85957"
  },
  {
    "State": "استان اصفهان",
    "City": "نطنز",
    "latitude": "33.505819",
    "longitude": "51.923169"
  },
  {
    "State": "استان اصفهان",
    "City": "کمه",
    "latitude": "31.065969",
    "longitude": "51.592731"
  },
  {
    "State": "استان اصفهان",
    "City": "نیک‌آباد",
    "latitude": "32.30741",
    "longitude": "52.20637"
  },
  {
    "State": "استان اصفهان",
    "City": "عسگران",
    "latitude": "32.867511",
    "longitude": "50.854839"
  },
  {
    "State": "استان اصفهان",
    "City": "انارک",
    "latitude": "33.31056",
    "longitude": "53.69829"
  },
  {
    "State": "استان اصفهان",
    "City": "وزوان",
    "latitude": "33.41595",
    "longitude": "51.177811"
  },
  {
    "State": "استان اصفهان",
    "City": "زرین شهر",
    "latitude": "32.38879",
    "longitude": "51.37345"
  },
  {
    "State": "استان اصفهان",
    "City": "رضوانشهر",
    "latitude": "37.550456",
    "longitude": "49.1431"
  },
  {
    "State": "استان اصفهان",
    "City": "دامنه",
    "latitude": "33.01955",
    "longitude": "50.491131"
  },
  {
    "State": "استان اصفهان",
    "City": "چرمهین",
    "latitude": "32.33452",
    "longitude": "51.19489"
  },
  {
    "State": "استان اصفهان",
    "City": "گلدشت",
    "latitude": "32.62338",
    "longitude": "51.43578"
  },
  {
    "State": "استان اصفهان",
    "City": "فلاورجان",
    "latitude": "32.55713",
    "longitude": "51.50595"
  },
  {
    "State": "استان اصفهان",
    "City": "مبارکه",
    "latitude": "32.34195",
    "longitude": "51.50488"
  },
  {
    "State": "استان اصفهان",
    "City": "بهاران شهر",
    "latitude": "32.512569",
    "longitude": "51.534039"
  },
  {
    "State": "استان اصفهان",
    "City": "زاینده رود",
    "latitude": "32.392214",
    "longitude": "51.268456"
  },
  {
    "State": "استان اصفهان",
    "City": "رزوه",
    "latitude": "32.837231",
    "longitude": "50.564139"
  },
  {
    "State": "استان اصفهان",
    "City": "نصرآباد",
    "latitude": "32.27937",
    "longitude": "52.0602"
  },
  {
    "State": "استان اصفهان",
    "City": "خور",
    "latitude": "27.6441",
    "longitude": "54.342"
  },
  {
    "State": "استان اصفهان",
    "City": "گوگد",
    "latitude": "33.477269",
    "longitude": "50.355839"
  },
  {
    "State": "استان اصفهان",
    "City": "برف انبار",
    "latitude": "32.987419",
    "longitude": "50.1901"
  },
  {
    "State": "استان اصفهان",
    "City": "تودشک",
    "latitude": "32.71983",
    "longitude": "52.66205"
  },
  {
    "State": "استان اصفهان",
    "City": "حبیب‌آباد",
    "latitude": "32.82765",
    "longitude": "51.77607"
  },
  {
    "State": "استان اصفهان",
    "City": "طالخونچه",
    "latitude": "32.268",
    "longitude": "51.56415"
  },
  {
    "State": "استان اصفهان",
    "City": "کوشک",
    "latitude": "32.6395",
    "longitude": "51.49985"
  },
  {
    "State": "استان اصفهان",
    "City": "کاشان",
    "latitude": "33.9637",
    "longitude": "51.447489"
  },
  {
    "State": "استان اصفهان",
    "City": "دیزیچه",
    "latitude": "32.38054",
    "longitude": "51.51171"
  },
  {
    "State": "استان اصفهان",
    "City": "پیربکران",
    "latitude": "32.46838",
    "longitude": "51.55878"
  },
  {
    "State": "استان اصفهان",
    "City": "جوشقان وکامو",
    "latitude": "33.608331",
    "longitude": "51.225"
  },
  {
    "State": "استان اصفهان",
    "City": "ونک",
    "latitude": "31.526072",
    "longitude": "51.325553"
  },
  {
    "State": "استان اصفهان",
    "City": "ابوزیدآباد",
    "latitude": "33.9019",
    "longitude": "51.76665"
  },
  {
    "State": "استان اصفهان",
    "City": "قمصر",
    "latitude": "33.753139",
    "longitude": "51.432581"
  },
  {
    "State": "استان اصفهان",
    "City": "مشکات",
    "latitude": "34.17745",
    "longitude": "51.261081"
  },
  {
    "State": "استان اصفهان",
    "City": "چمگردان",
    "latitude": "32.39291",
    "longitude": "51.3393"
  },
  {
    "State": "استان اصفهان",
    "City": "کمشچه",
    "latitude": "32.905464",
    "longitude": "51.809425"
  },
  {
    "State": "استان اصفهان",
    "City": "کوهپایه",
    "latitude": "32.71451",
    "longitude": "52.44083"
  },
  {
    "State": "استان اصفهان",
    "City": "دستگرد",
    "latitude": "32.80158",
    "longitude": "51.66248"
  },
  {
    "State": "استان اصفهان",
    "City": "ایمانشهر",
    "latitude": "32.474111",
    "longitude": "51.475897"
  },
  {
    "State": "استان اصفهان",
    "City": "درچه پیاز",
    "latitude": "32.61305",
    "longitude": "51.55308"
  },
  {
    "State": "استان اصفهان",
    "City": "مهاباد",
    "latitude": "36.76655",
    "longitude": "45.720039"
  },
  {
    "State": "استان اصفهان",
    "City": "زواره",
    "latitude": "33.452861",
    "longitude": "52.489381"
  },
  {
    "State": "استان اصفهان",
    "City": "ورزنه",
    "latitude": "32.4219",
    "longitude": "52.6496"
  },
  {
    "State": "استان ایلام",
    "City": "دهلران",
    "latitude": "32.693031",
    "longitude": "47.260431"
  },
  {
    "State": "استان ایلام",
    "City": "سرابله",
    "latitude": "33.767361",
    "longitude": "46.565661"
  },
  {
    "State": "استان ایلام",
    "City": "بدره",
    "latitude": "33.306878",
    "longitude": "47.036831"
  },
  {
    "State": "استان ایلام",
    "City": "دره شهر",
    "latitude": "33.140658",
    "longitude": "47.378903"
  },
  {
    "State": "استان ایلام",
    "City": "ایوان",
    "latitude": "33.827556",
    "longitude": "46.308067"
  },
  {
    "State": "استان ایلام",
    "City": "مورموری",
    "latitude": "32.725369",
    "longitude": "47.676231"
  },
  {
    "State": "استان ایلام",
    "City": "توحید",
    "latitude": "33.7255",
    "longitude": "47.0685"
  },
  {
    "State": "استان ایلام",
    "City": "میمه",
    "latitude": "33.4489",
    "longitude": "51.173311"
  },
  {
    "State": "استان ایلام",
    "City": "پهله",
    "latitude": "33.008831",
    "longitude": "46.883719"
  },
  {
    "State": "استان ایلام",
    "City": "آبدانان",
    "latitude": "32.990264",
    "longitude": "47.423764"
  },
  {
    "State": "استان ایلام",
    "City": "مهران",
    "latitude": "33.1195",
    "longitude": "46.165661"
  },
  {
    "State": "استان ایلام",
    "City": "آسمان‌آباد",
    "latitude": "33.861297",
    "longitude": "46.452986"
  },
  {
    "State": "استان ایلام",
    "City": "زرنه",
    "latitude": "33.927419",
    "longitude": "46.1823"
  },
  {
    "State": "استان ایلام",
    "City": "میمه",
    "latitude": "33.227594",
    "longitude": "46.916008"
  },
  {
    "State": "استان ایلام",
    "City": "لومار",
    "latitude": "33.565828",
    "longitude": "46.812681"
  },
  {
    "State": "استان ایلام",
    "City": "ایلام",
    "latitude": "33.64015",
    "longitude": "46.42869"
  },
  {
    "State": "استان ایلام",
    "City": "ارکواز",
    "latitude": "33.392269",
    "longitude": "46.6028"
  },
  {
    "State": "استان ایلام",
    "City": "موسیان",
    "latitude": "32.519444",
    "longitude": "47.377222"
  },
  {
    "State": "استان ایلام",
    "City": "چوار",
    "latitude": "33.695131",
    "longitude": "46.298053"
  },
  {
    "State": "استان آذربایجان شرقی",
    "City": "تبریز",
    "latitude": "38.07929",
    "longitude": "46.28859"
  },
  {
    "State": "استان بوشهر",
    "City": "بردخون",
    "latitude": "28.062231",
    "longitude": "51.477217"
  },
  {
    "State": "استان بوشهر",
    "City": "بوشهر",
    "latitude": "28.967944",
    "longitude": "50.836922"
  },
  {
    "State": "استان بوشهر",
    "City": "امام حسن",
    "latitude": "29.83948",
    "longitude": "50.26212"
  },
  {
    "State": "استان بوشهر",
    "City": "کلمه",
    "latitude": "28.943411",
    "longitude": "51.457289"
  },
  {
    "State": "استان بوشهر",
    "City": "طاهری",
    "latitude": "27.66705",
    "longitude": "52.346131"
  },
  {
    "State": "استان بوشهر",
    "City": "جم",
    "latitude": "27.827919",
    "longitude": "52.327689"
  },
  {
    "State": "استان بوشهر",
    "City": "شبانکاره",
    "latitude": "29.47184",
    "longitude": "50.99499"
  },
  {
    "State": "استان بوشهر",
    "City": "بندرگناوه",
    "latitude": "29.57791",
    "longitude": "50.51646"
  },
  {
    "State": "استان بوشهر",
    "City": "خورموج",
    "latitude": "28.65578",
    "longitude": "51.37626"
  },
  {
    "State": "استان بوشهر",
    "City": "بنک",
    "latitude": "27.870272",
    "longitude": "52.025369"
  },
  {
    "State": "استان بوشهر",
    "City": "برازجان",
    "latitude": "29.2685",
    "longitude": "51.21669"
  },
  {
    "State": "استان بوشهر",
    "City": "چغادک",
    "latitude": "28.986819",
    "longitude": "51.034011"
  },
  {
    "State": "استان بوشهر",
    "City": "وحدتیه",
    "latitude": "29.482511",
    "longitude": "51.243331"
  },
  {
    "State": "استان بوشهر",
    "City": "نخل تقی",
    "latitude": "27.494719",
    "longitude": "52.583933"
  },
  {
    "State": "استان بوشهر",
    "City": "آبدان",
    "latitude": "28.080194",
    "longitude": "51.768467"
  },
  {
    "State": "استان بوشهر",
    "City": "سعدآباد",
    "latitude": "29.389131",
    "longitude": "51.119861"
  },
  {
    "State": "استان بوشهر",
    "City": "دالکی",
    "latitude": "29.431061",
    "longitude": "51.28905"
  },
  {
    "State": "استان بوشهر",
    "City": "خارک",
    "latitude": "29.2547",
    "longitude": "50.3256"
  },
  {
    "State": "استان بوشهر",
    "City": "کاکی",
    "latitude": "28.34324",
    "longitude": "51.52696"
  },
  {
    "State": "استان بوشهر",
    "City": "ریز",
    "latitude": "28.046575",
    "longitude": "52.091647"
  },
  {
    "State": "استان بوشهر",
    "City": "اهرم",
    "latitude": "28.88279",
    "longitude": "51.27536"
  },
  {
    "State": "استان بوشهر",
    "City": "دلوار",
    "latitude": "28.762481",
    "longitude": "51.0712"
  },
  {
    "State": "استان بوشهر",
    "City": "عسلویه",
    "latitude": "27.475842",
    "longitude": "52.606972"
  },
  {
    "State": "استان بوشهر",
    "City": "تنگ ارم",
    "latitude": "29.155811",
    "longitude": "51.526411"
  },
  {
    "State": "استان تهران",
    "City": "ری",
    "latitude": "35.601611",
    "longitude": "51.441311"
  },
  {
    "State": "استان تهران",
    "City": "شهرجدیدهشتگرد",
    "latitude": "35.97998",
    "longitude": "50.73974"
  },
  {
    "State": "استان تهران",
    "City": "نظرآباد",
    "latitude": "35.95564",
    "longitude": "50.61471"
  },
  {
    "State": "استان تهران",
    "City": "ورامین",
    "latitude": "35.325675",
    "longitude": "51.647678"
  },
  {
    "State": "استان تهران",
    "City": "چهاردانگه",
    "latitude": "35.610019",
    "longitude": "51.307467"
  },
  {
    "State": "استان تهران",
    "City": "محمدشهر",
    "latitude": "35.7528",
    "longitude": "50.90389"
  },
  {
    "State": "استان تهران",
    "City": "شهریار",
    "latitude": "35.653589",
    "longitude": "51.061211"
  },
  {
    "State": "استان تهران",
    "City": "شاهدشهر",
    "latitude": "35.5734",
    "longitude": "51.0846"
  },
  {
    "State": "استان تهران",
    "City": "نسیم شهر",
    "latitude": "35.562781",
    "longitude": "51.160553"
  },
  {
    "State": "استان تهران",
    "City": "بومهن",
    "latitude": "35.7456",
    "longitude": "51.872842"
  },
  {
    "State": "استان تهران",
    "City": "فردوسیه",
    "latitude": "35.5966",
    "longitude": "51.064"
  },
  {
    "State": "استان تهران",
    "City": "ارجمند",
    "latitude": "35.815492",
    "longitude": "52.512822"
  },
  {
    "State": "استان تهران",
    "City": "طالقان",
    "latitude": "36.178708",
    "longitude": "50.765547"
  },
  {
    "State": "استان تهران",
    "City": "گلستان",
    "latitude": "35.520461",
    "longitude": "51.166264"
  },
  {
    "State": "استان تهران",
    "City": "شریف‌آباد",
    "latitude": "35.4263",
    "longitude": "51.7801"
  },
  {
    "State": "استان تهران",
    "City": "پردیس",
    "latitude": "35.7371",
    "longitude": "51.8173"
  },
  {
    "State": "استان تهران",
    "City": "اسلامشهر",
    "latitude": "35.550053",
    "longitude": "51.229808"
  },
  {
    "State": "استان تهران",
    "City": "صباشهر",
    "latitude": "35.577994",
    "longitude": "51.115603"
  },
  {
    "State": "استان تهران",
    "City": "وحیدیه",
    "latitude": "35.6066",
    "longitude": "51.0459"
  },
  {
    "State": "استان تهران",
    "City": "دماوند",
    "latitude": "35.728731",
    "longitude": "52.068586"
  },
  {
    "State": "استان تهران",
    "City": "صالح‌آباد",
    "latitude": "35.508408",
    "longitude": "51.190403"
  },
  {
    "State": "استان تهران",
    "City": "کمال شهر",
    "latitude": "35.863192",
    "longitude": "50.871322"
  },
  {
    "State": "استان تهران",
    "City": "تهران",
    "latitude": "35.75",
    "longitude": "51.375"
  },
  {
    "State": "استان تهران",
    "City": "فشم",
    "latitude": "35.929875",
    "longitude": "51.526633"
  },
  {
    "State": "استان تهران",
    "City": "آبعلی",
    "latitude": "35.760772",
    "longitude": "51.966183"
  },
  {
    "State": "استان تهران",
    "City": "کهریزک",
    "latitude": "35.515972",
    "longitude": "51.362211"
  },
  {
    "State": "استان تهران",
    "City": "حسن‌آباد",
    "latitude": "35.367253",
    "longitude": "51.234706"
  },
  {
    "State": "استان تهران",
    "City": "قدس",
    "latitude": "35.6955",
    "longitude": "51.1218"
  },
  {
    "State": "استان تهران",
    "City": "صالح‌آباد",
    "latitude": "35.691739",
    "longitude": "61.087625"
  },
  {
    "State": "استان تهران",
    "City": "چهارباغ",
    "latitude": "35.831839",
    "longitude": "50.853689"
  },
  {
    "State": "استان تهران",
    "City": "ملارد",
    "latitude": "35.69574",
    "longitude": "50.96407"
  },
  {
    "State": "استان تهران",
    "City": "باقرشهر",
    "latitude": "35.532836",
    "longitude": "51.404136"
  },
  {
    "State": "استان تهران",
    "City": "قرچک",
    "latitude": "35.439414",
    "longitude": "51.567122"
  },
  {
    "State": "استان تهران",
    "City": "رودهن",
    "latitude": "35.735064",
    "longitude": "51.907219"
  },
  {
    "State": "استان تهران",
    "City": "پیشوا",
    "latitude": "35.306758",
    "longitude": "51.721211"
  },
  {
    "State": "استان البرز",
    "City": "کرج",
    "latitude": "35.84272",
    "longitude": "50.97715"
  },
  {
    "State": "استان تهران",
    "City": "حسن‌آباد",
    "latitude": "32.14078",
    "longitude": "52.62449"
  },
  {
    "State": "استان تهران",
    "City": "نصیرآباد",
    "latitude": "35.494706",
    "longitude": "51.143864"
  },
  {
    "State": "استان تهران",
    "City": "اندیشه",
    "latitude": "35.691664",
    "longitude": "51.024997"
  },
  {
    "State": "استان تهران",
    "City": "کوهسار",
    "latitude": "35.952419",
    "longitude": "50.790789"
  },
  {
    "State": "استان تهران",
    "City": "کیلان",
    "latitude": "35.551078",
    "longitude": "52.166319"
  },
  {
    "State": "استان تهران",
    "City": "مشکین دشت",
    "latitude": "35.7518",
    "longitude": "50.9362"
  },
  {
    "State": "استان تهران",
    "City": "فیروزکوه",
    "latitude": "35.755942",
    "longitude": "52.773286"
  },
  {
    "State": "استان تهران",
    "City": "گرمدره",
    "latitude": "35.75",
    "longitude": "51.066661"
  },
  {
    "State": "استان تهران",
    "City": "پاکدشت",
    "latitude": "35.474961",
    "longitude": "51.675969"
  },
  {
    "State": "استان تهران",
    "City": "هشتگرد",
    "latitude": "35.963994",
    "longitude": "50.685664"
  },
  {
    "State": "استان تهران",
    "City": "اشتهارد",
    "latitude": "35.72497",
    "longitude": "50.37063"
  },
  {
    "State": "استان تهران",
    "City": "آبسرد",
    "latitude": "35.650661",
    "longitude": "52.013761"
  },
  {
    "State": "استان تهران",
    "City": "صفادشت",
    "latitude": "35.684489",
    "longitude": "50.824658"
  },
  {
    "State": "استان تهران",
    "City": "صالح‌آباد",
    "latitude": "34.92461",
    "longitude": "48.34329"
  },
  {
    "State": "استان تهران",
    "City": "صالح‌آباد",
    "latitude": "33.471639",
    "longitude": "46.186631"
  },
  {
    "State": "استان تهران",
    "City": "لواسان",
    "latitude": "35.819342",
    "longitude": "51.631906"
  },
  {
    "State": "استان تهران",
    "City": "ماهدشت",
    "latitude": "35.72793",
    "longitude": "50.80831"
  },
  {
    "State": "استان تهران",
    "City": "جوادآباد",
    "latitude": "35.210539",
    "longitude": "51.676064"
  },
  {
    "State": "استان تهران",
    "City": "باغستان",
    "latitude": "35.883331",
    "longitude": "50.966661"
  },
  {
    "State": "استان چهارمحال و بختیاری",
    "City": "کاکلک",
    "latitude": "32.21802",
    "longitude": "50.69679"
  },
  {
    "State": "استان چهارمحال و بختیاری",
    "City": "طاقانک",
    "latitude": "32.21802",
    "longitude": "50.83509"
  },
  {
    "State": "استان چهارمحال و بختیاری",
    "City": "بروجن",
    "latitude": "31.97442",
    "longitude": "51.28507"
  },
  {
    "State": "استان چهارمحال و بختیاری",
    "City": "لردگان",
    "latitude": "31.512528",
    "longitude": "50.830358"
  },
  {
    "State": "استان چهارمحال و بختیاری",
    "City": "چلگرد",
    "latitude": "32.467339",
    "longitude": "50.1224"
  },
  {
    "State": "استان چهارمحال و بختیاری",
    "City": "باباحیدر",
    "latitude": "32.32929",
    "longitude": "50.46793"
  },
  {
    "State": "استان چهارمحال و بختیاری",
    "City": "سامان",
    "latitude": "32.45325",
    "longitude": "50.91017"
  },
  {
    "State": "استان چهارمحال و بختیاری",
    "City": "فارسان",
    "latitude": "32.26403",
    "longitude": "50.5636"
  },
  {
    "State": "استان چهارمحال و بختیاری",
    "City": "مال خلیفه",
    "latitude": "31.291",
    "longitude": "51.256681"
  },
  {
    "State": "استان چهارمحال و بختیاری",
    "City": "بلداجی",
    "latitude": "31.93656",
    "longitude": "51.0513"
  },
  {
    "State": "استان چهارمحال و بختیاری",
    "City": "کیان",
    "latitude": "32.28845",
    "longitude": "50.89631"
  },
  {
    "State": "استان چهارمحال و بختیاری",
    "City": "الونی",
    "latitude": "31.553411",
    "longitude": "51.062989"
  },
  {
    "State": "استان چهارمحال و بختیاری",
    "City": "سودجان",
    "latitude": "32.523461",
    "longitude": "50.395831"
  },
  {
    "State": "استان چهارمحال و بختیاری",
    "City": "نافچ",
    "latitude": "32.42433",
    "longitude": "50.78362"
  },
  {
    "State": "استان چهارمحال و بختیاری",
    "City": "هفشجان",
    "latitude": "32.22514",
    "longitude": "50.79634"
  },
  {
    "State": "استان چهارمحال و بختیاری",
    "City": "جونقان",
    "latitude": "32.15336",
    "longitude": "50.68484"
  },
  {
    "State": "استان چهارمحال و بختیاری",
    "City": "گندمان",
    "latitude": "31.86545",
    "longitude": "51.15241"
  },
  {
    "State": "استان چهارمحال و بختیاری",
    "City": "شهرکرد",
    "latitude": "32.32676",
    "longitude": "50.85901"
  },
  {
    "State": "استان چهارمحال و بختیاری",
    "City": "سورشجان",
    "latitude": "32.32303",
    "longitude": "50.67569"
  },
  {
    "State": "استان چهارمحال و بختیاری",
    "City": "شلمزار",
    "latitude": "32.04446",
    "longitude": "50.82058"
  },
  {
    "State": "استان چهارمحال و بختیاری",
    "City": "اردل",
    "latitude": "32",
    "longitude": "50.660153"
  },
  {
    "State": "استان چهارمحال و بختیاری",
    "City": "ناغان",
    "latitude": "31.938661",
    "longitude": "50.735697"
  },
  {
    "State": "استان چهارمحال و بختیاری",
    "City": "بن (شهرکرد)",
    "latitude": "32.54569",
    "longitude": "50.74448"
  },
  {
    "State": "استان چهارمحال و بختیاری",
    "City": "سفیددشت",
    "latitude": "32.13062",
    "longitude": "51.18151"
  },
  {
    "State": "استان چهارمحال و بختیاری",
    "City": "فرخ شهر",
    "latitude": "32.276381",
    "longitude": "50.984719"
  },
  {
    "State": "استان چهارمحال و بختیاری",
    "City": "گهرو",
    "latitude": "32.002311",
    "longitude": "50.886419"
  },
  {
    "State": "استان خراسان جنوبی",
    "City": "اسفدن",
    "latitude": "33.651389",
    "longitude": "59.7816"
  },
  {
    "State": "استان خراسان جنوبی",
    "City": "سربیشه",
    "latitude": "32.577106",
    "longitude": "59.798539"
  },
  {
    "State": "استان خراسان جنوبی",
    "City": "فردوس",
    "latitude": "34.01993",
    "longitude": "58.17532"
  },
  {
    "State": "استان خراسان جنوبی",
    "City": "شوسف",
    "latitude": "31.804958",
    "longitude": "60.014025"
  },
  {
    "State": "استان خراسان جنوبی",
    "City": "آرین‌شهر",
    "latitude": "33.331839",
    "longitude": "59.236889"
  },
  {
    "State": "استان خراسان جنوبی",
    "City": "سرایان",
    "latitude": "33.861364",
    "longitude": "58.52485"
  },
  {
    "State": "استان خراسان جنوبی",
    "City": "ایسک",
    "latitude": "33.885842",
    "longitude": "58.381228"
  },
  {
    "State": "استان خراسان جنوبی",
    "City": "حاجی‌آباد",
    "latitude": "28.30721",
    "longitude": "55.89842"
  },
  {
    "State": "استان خراسان جنوبی",
    "City": "خوسف",
    "latitude": "32.771669",
    "longitude": "58.857311"
  },
  {
    "State": "استان خراسان جنوبی",
    "City": "زهان",
    "latitude": "33.418369",
    "longitude": "59.814381"
  },
  {
    "State": "استان خراسان جنوبی",
    "City": "نیمبلوک",
    "latitude": "33.910719",
    "longitude": "58.931069"
  },
  {
    "State": "استان خراسان جنوبی",
    "City": "مود",
    "latitude": "32.701919",
    "longitude": "59.522869"
  },
  {
    "State": "استان خراسان جنوبی",
    "City": "بیرجند",
    "latitude": "32.862759",
    "longitude": "59.216442"
  },
  {
    "State": "استان خراسان جنوبی",
    "City": "حاجی‌آباد",
    "latitude": "28.357769",
    "longitude": "54.419481"
  },
  {
    "State": "استان خراسان جنوبی",
    "City": "حاجی‌آباد",
    "latitude": "33.60659",
    "longitude": "59.98974"
  },
  {
    "State": "استان خراسان جنوبی",
    "City": "نهبندان",
    "latitude": "31.540533",
    "longitude": "60.037883"
  },
  {
    "State": "استان خراسان جنوبی",
    "City": "اسلامیه",
    "latitude": "34.04204",
    "longitude": "58.21881"
  },
  {
    "State": "استان خراسان جنوبی",
    "City": "اسدیه",
    "latitude": "32.916344",
    "longitude": "60.020764"
  },
  {
    "State": "استان خراسان جنوبی",
    "City": "بشرویه",
    "latitude": "33.86857",
    "longitude": "57.43041"
  },
  {
    "State": "استان خراسان جنوبی",
    "City": "سه قلعه",
    "latitude": "33.665861",
    "longitude": "58.396808"
  },
  {
    "State": "استان خراسان جنوبی",
    "City": "خضری دشت بیاض",
    "latitude": "34.022819",
    "longitude": "58.812711"
  },
  {
    "State": "استان خراسان جنوبی",
    "City": "قاین",
    "latitude": "33.73672",
    "longitude": "59.18291"
  },
  {
    "State": "استان خراسان رضوی",
    "City": "گناباد",
    "latitude": "34.36235",
    "longitude": "58.67979"
  },
  {
    "State": "استان خراسان رضوی",
    "City": "چکنه",
    "latitude": "36.817989",
    "longitude": "58.503633"
  },
  {
    "State": "استان خراسان رضوی",
    "City": "ششتمد",
    "latitude": "35.964411",
    "longitude": "57.768769"
  },
  {
    "State": "استان خراسان رضوی",
    "City": "چاپشلو",
    "latitude": "37.352089",
    "longitude": "59.073989"
  },
  {
    "State": "استان خراسان رضوی",
    "City": "سبزوار",
    "latitude": "36.208631",
    "longitude": "57.67505"
  },
  {
    "State": "استان خراسان رضوی",
    "City": "نشتیفان",
    "latitude": "34.430861",
    "longitude": "60.169789"
  },
  {
    "State": "استان خراسان رضوی",
    "City": "نوخندان",
    "latitude": "37.514506",
    "longitude": "58.981444"
  },
  {
    "State": "استان خراسان رضوی",
    "City": "تربت جام",
    "latitude": "35.242681",
    "longitude": "60.618369"
  },
  {
    "State": "استان خراسان رضوی",
    "City": "سرخس",
    "latitude": "36.535169",
    "longitude": "61.162011"
  },
  {
    "State": "استان خراسان رضوی",
    "City": "طرقبه",
    "latitude": "36.315161",
    "longitude": "59.376339"
  },
  {
    "State": "استان خراسان رضوی",
    "City": "فریمان",
    "latitude": "35.703781",
    "longitude": "59.846081"
  },
  {
    "State": "استان خراسان رضوی",
    "City": "باخرز",
    "latitude": "34.988711",
    "longitude": "60.318119"
  },
  {
    "State": "استان خراسان رضوی",
    "City": "قدمگاه",
    "latitude": "36.113117",
    "longitude": "59.039122"
  },
  {
    "State": "استان خراسان رضوی",
    "City": "قوچان",
    "latitude": "37.108239",
    "longitude": "58.50715"
  },
  {
    "State": "استان خراسان رضوی",
    "City": "خرو",
    "latitude": "36.143472",
    "longitude": "59.016525"
  },
  {
    "State": "استان خراسان رضوی",
    "City": "تربت حیدریه",
    "latitude": "35.273389",
    "longitude": "59.216589"
  },
  {
    "State": "استان خراسان رضوی",
    "City": "مشهدریزه",
    "latitude": "34.793628",
    "longitude": "60.503925"
  },
  {
    "State": "استان خراسان رضوی",
    "City": "فیض‌آباد",
    "latitude": "35.021181",
    "longitude": "58.779061"
  },
  {
    "State": "استان خراسان رضوی",
    "City": "بردسکن",
    "latitude": "35.258414",
    "longitude": "57.968292"
  },
  {
    "State": "استان خراسان رضوی",
    "City": "جنگل",
    "latitude": "34.703161",
    "longitude": "59.215331"
  },
  {
    "State": "استان خراسان رضوی",
    "City": "کلات",
    "latitude": "36.986981",
    "longitude": "59.798775"
  },
  {
    "State": "استان خراسان رضوی",
    "City": "بجستان",
    "latitude": "34.51664",
    "longitude": "58.18517"
  },
  {
    "State": "استان خراسان رضوی",
    "City": "فرهادگرد",
    "latitude": "35.7665",
    "longitude": "59.733111"
  },
  {
    "State": "استان خراسان رضوی",
    "City": "نیشابور",
    "latitude": "36.20535",
    "longitude": "58.80095"
  },
  {
    "State": "استان خراسان رضوی",
    "City": "باجگیران",
    "latitude": "37.614969",
    "longitude": "58.429789"
  },
  {
    "State": "استان خراسان رضوی",
    "City": "قاسم‌آباد",
    "latitude": "34.360231",
    "longitude": "59.8644"
  },
  {
    "State": "استان خراسان رضوی",
    "City": "نقاب",
    "latitude": "36.711119",
    "longitude": "57.4183"
  },
  {
    "State": "استان خراسان رضوی",
    "City": "کاشمر",
    "latitude": "35.235739",
    "longitude": "58.458381"
  },
  {
    "State": "استان خراسان رضوی",
    "City": "ملک‌آباد",
    "latitude": "35.999511",
    "longitude": "59.591039"
  },
  {
    "State": "استان خراسان رضوی",
    "City": "نیل شهر",
    "latitude": "35.136944",
    "longitude": "60.767586"
  },
  {
    "State": "استان خراسان رضوی",
    "City": "لطف‌آباد",
    "latitude": "37.518261",
    "longitude": "59.340211"
  },
  {
    "State": "استان خراسان رضوی",
    "City": "مشهد",
    "latitude": "36.28691",
    "longitude": "59.54392"
  },
  {
    "State": "استان خراسان رضوی",
    "City": "فیروزه",
    "latitude": "36.283611",
    "longitude": "58.586108"
  },
  {
    "State": "استان خراسان رضوی",
    "City": "ریوش",
    "latitude": "35.475075",
    "longitude": "58.458472"
  },
  {
    "State": "استان خراسان رضوی",
    "City": "خلیل‌آباد",
    "latitude": "35.250731",
    "longitude": "58.287908"
  },
  {
    "State": "استان خراسان رضوی",
    "City": "سفیدسنگ",
    "latitude": "35.643311",
    "longitude": "60.087181"
  },
  {
    "State": "استان خراسان رضوی",
    "City": "یونسی",
    "latitude": "34.803769",
    "longitude": "58.4423"
  },
  {
    "State": "استان خراسان رضوی",
    "City": "تایباد",
    "latitude": "34.739547",
    "longitude": "60.777731"
  },
  {
    "State": "استان خراسان رضوی",
    "City": "کاخک",
    "latitude": "34.14965",
    "longitude": "58.63891"
  },
  {
    "State": "استان خراسان رضوی",
    "City": "چناران",
    "latitude": "36.648069",
    "longitude": "59.125061"
  },
  {
    "State": "استان خراسان رضوی",
    "City": "درود",
    "latitude": "36.133331",
    "longitude": "59.116661"
  },
  {
    "State": "استان خراسان رضوی",
    "City": "رضویه",
    "latitude": "36.205958",
    "longitude": "59.769792"
  },
  {
    "State": "استان خراسان رضوی",
    "City": "مزداوند",
    "latitude": "36.155669",
    "longitude": "60.528425"
  },
  {
    "State": "استان خراسان رضوی",
    "City": "درگز",
    "latitude": "37.445831",
    "longitude": "59.111061"
  },
  {
    "State": "استان خراسان رضوی",
    "City": "شاندیز",
    "latitude": "36.39435",
    "longitude": "59.290161"
  },
  {
    "State": "استان خراسان رضوی",
    "City": "کندر",
    "latitude": "35.205142",
    "longitude": "58.151394"
  },
  {
    "State": "استان خراسان رضوی",
    "City": "قلندرآباد",
    "latitude": "35.599256",
    "longitude": "59.950897"
  },
  {
    "State": "استان خراسان رضوی",
    "City": "شهرزو",
    "latitude": "36.749167",
    "longitude": "59.937503"
  },
  {
    "State": "استان خراسان رضوی",
    "City": "روداب",
    "latitude": "36.018439",
    "longitude": "57.308144"
  },
  {
    "State": "استان خراسان رضوی",
    "City": "سنگان",
    "latitude": "34.401564",
    "longitude": "60.257806"
  },
  {
    "State": "استان خراسان رضوی",
    "City": "سلطان‌آباد",
    "latitude": "36.404783",
    "longitude": "58.038289"
  },
  {
    "State": "استان خراسان رضوی",
    "City": "داورزن",
    "latitude": "36.345389",
    "longitude": "56.8767"
  },
  {
    "State": "استان خراسان رضوی",
    "City": "کاریز",
    "latitude": "35.4942",
    "longitude": "60.1745"
  },
  {
    "State": "استان خراسان رضوی",
    "City": "خواف",
    "latitude": "34.570181",
    "longitude": "60.137631"
  },
  {
    "State": "استان خراسان رضوی",
    "City": "سلامی",
    "latitude": "34.748731",
    "longitude": "59.9723"
  },
  {
    "State": "استان خراسان رضوی",
    "City": "جغتای",
    "latitude": "36.630681",
    "longitude": "57.061689"
  },
  {
    "State": "استان خراسان رضوی",
    "City": "بیدخت",
    "latitude": "34.33957",
    "longitude": "58.75789"
  },
  {
    "State": "استان خراسان رضوی",
    "City": "رشتخوار",
    "latitude": "34.96996",
    "longitude": "59.62866"
  },
  {
    "State": "استان خراسان رضوی",
    "City": "کدکن",
    "latitude": "35.586214",
    "longitude": "58.877672"
  },
  {
    "State": "استان خراسان شمالی",
    "City": "شوقان",
    "latitude": "37.346992",
    "longitude": "56.894836"
  },
  {
    "State": "استان خراسان شمالی",
    "City": "لوجلی",
    "latitude": "37.604619",
    "longitude": "57.857825"
  },
  {
    "State": "استان خراسان شمالی",
    "City": "گرمه جاجرم",
    "latitude": "36.950008",
    "longitude": "56.379303"
  },
  {
    "State": "استان خراسان شمالی",
    "City": "قاضی",
    "latitude": "37.494836",
    "longitude": "56.74795"
  },
  {
    "State": "استان خراسان شمالی",
    "City": "حصارگرمخان",
    "latitude": "37.516019",
    "longitude": "57.485314"
  },
  {
    "State": "استان خراسان شمالی",
    "City": "اسفراین",
    "latitude": "37.071369",
    "longitude": "57.506356"
  },
  {
    "State": "استان خراسان شمالی",
    "City": "شیروان",
    "latitude": "37.393825",
    "longitude": "57.934303"
  },
  {
    "State": "استان خراسان شمالی",
    "City": "فاروج",
    "latitude": "37.230925",
    "longitude": "58.217906"
  },
  {
    "State": "استان خراسان شمالی",
    "City": "سنخواست",
    "latitude": "37.099619",
    "longitude": "56.849436"
  },
  {
    "State": "استان خراسان شمالی",
    "City": "بجنورد",
    "latitude": "37.47203",
    "longitude": "57.33173"
  },
  {
    "State": "استان خراسان شمالی",
    "City": "پیش قلعه",
    "latitude": "37.650442",
    "longitude": "57.001553"
  },
  {
    "State": "استان خراسان شمالی",
    "City": "درق",
    "latitude": "36.981575",
    "longitude": "56.218883"
  },
  {
    "State": "استان خراسان شمالی",
    "City": "راز",
    "latitude": "37.933725",
    "longitude": "57.111342"
  },
  {
    "State": "استان خراسان شمالی",
    "City": "آشخانه",
    "latitude": "37.561375",
    "longitude": "56.923003"
  },
  {
    "State": "استان خراسان شمالی",
    "City": "صفی‌آباد",
    "latitude": "32.265169",
    "longitude": "48.41805"
  },
  {
    "State": "استان خراسان شمالی",
    "City": "صفی‌آباد",
    "latitude": "36.695572",
    "longitude": "57.929797"
  },
  {
    "State": "استان خوزستان",
    "City": "آبادان",
    "latitude": "30.354228",
    "longitude": "48.272817"
  },
  {
    "State": "استان خوزستان",
    "City": "بندرامام خمینی",
    "latitude": "30.433172",
    "longitude": "49.077467"
  },
  {
    "State": "استان خوزستان",
    "City": "شوش",
    "latitude": "32.199639",
    "longitude": "48.24795"
  },
  {
    "State": "استان خوزستان",
    "City": "خرمشهر",
    "latitude": "30.440086",
    "longitude": "48.188544"
  },
  {
    "State": "استان زنجان",
    "City": "دندی",
    "latitude": "36.553731",
    "longitude": "47.623181"
  },
  {
    "State": "استان زنجان",
    "City": "حلب",
    "latitude": "36.296089",
    "longitude": "48.063269"
  },
  {
    "State": "استان زنجان",
    "City": "خرمدره",
    "latitude": "36.203",
    "longitude": "49.1887"
  },
  {
    "State": "استان زنجان",
    "City": "سجاس",
    "latitude": "36.235731",
    "longitude": "48.545919"
  },
  {
    "State": "استان زنجان",
    "City": "ماه نشان",
    "latitude": "36.7452",
    "longitude": "47.66947"
  },
  {
    "State": "استان زنجان",
    "City": "زنجان",
    "latitude": "36.670781",
    "longitude": "48.480939"
  },
  {
    "State": "استان زنجان",
    "City": "هیدج",
    "latitude": "36.253317",
    "longitude": "49.130025"
  },
  {
    "State": "استان زنجان",
    "City": "گرماب",
    "latitude": "35.848811",
    "longitude": "48.196811"
  },
  {
    "State": "استان زنجان",
    "City": "چورزق",
    "latitude": "37.000803",
    "longitude": "48.7747"
  },
  {
    "State": "استان زنجان",
    "City": "چورزق",
    "latitude": "36.99712",
    "longitude": "48.77759"
  },
  {
    "State": "استان زنجان",
    "City": "زرین‌آباد",
    "latitude": "36.4255",
    "longitude": "48.280475"
  },
  {
    "State": "استان زنجان",
    "City": "سلطانیه",
    "latitude": "36.434369",
    "longitude": "48.797419"
  },
  {
    "State": "استان زنجان",
    "City": "زرین رود",
    "latitude": "35.7579",
    "longitude": "48.4822"
  },
  {
    "State": "استان زنجان",
    "City": "آب‌بر",
    "latitude": "36.924006",
    "longitude": "48.962139"
  },
  {
    "State": "استان زنجان",
    "City": "قیدار",
    "latitude": "36.116331",
    "longitude": "48.591689"
  },
  {
    "State": "استان زنجان",
    "City": "ابهر",
    "latitude": "36.144731",
    "longitude": "49.219269"
  },
  {
    "State": "استان زنجان",
    "City": "صایین‌قلعه",
    "latitude": "36.302667",
    "longitude": "49.073464"
  },
  {
    "State": "استان سمنان",
    "City": "ایوانکی",
    "latitude": "35.345047",
    "longitude": "52.070261"
  },
  {
    "State": "استان سمنان",
    "City": "گرمسار",
    "latitude": "35.221592",
    "longitude": "52.340547"
  },
  {
    "State": "استان سمنان",
    "City": "سمنان",
    "latitude": "35.57502",
    "longitude": "53.390213"
  },
  {
    "State": "استان سمنان",
    "City": "امیریه",
    "latitude": "36.02685",
    "longitude": "54.140575"
  },
  {
    "State": "استان سمنان",
    "City": "سرخه",
    "latitude": "35.463958",
    "longitude": "53.213583"
  },
  {
    "State": "استان سمنان",
    "City": "بیارجمند",
    "latitude": "36.079344",
    "longitude": "55.810097"
  },
  {
    "State": "استان سمنان",
    "City": "مجن",
    "latitude": "36.479083",
    "longitude": "54.648236"
  },
  {
    "State": "استان سمنان",
    "City": "شاهرود",
    "latitude": "36.419839",
    "longitude": "54.9677"
  },
  {
    "State": "استان سمنان",
    "City": "بسطام",
    "latitude": "36.484936",
    "longitude": "55.000269"
  },
  {
    "State": "استان سمنان",
    "City": "دیباج",
    "latitude": "36.428036",
    "longitude": "54.232111"
  },
  {
    "State": "استان سمنان",
    "City": "شهمیرزاد",
    "latitude": "35.771439",
    "longitude": "53.328319"
  },
  {
    "State": "استان سمنان",
    "City": "دامغان",
    "latitude": "36.167108",
    "longitude": "54.340986"
  },
  {
    "State": "استان سمنان",
    "City": "میامی",
    "latitude": "36.411764",
    "longitude": "55.657958"
  },
  {
    "State": "استان سمنان",
    "City": "کلاته خیج",
    "latitude": "36.673672",
    "longitude": "55.296328"
  },
  {
    "State": "استان سمنان",
    "City": "آرادان",
    "latitude": "35.247919",
    "longitude": "52.492856"
  },
  {
    "State": "استان سمنان",
    "City": "مهدی شهر",
    "latitude": "35.715414",
    "longitude": "53.356572"
  },
  {
    "State": "استان سیستان و بلوچستان",
    "City": "زهک",
    "latitude": "30.894167",
    "longitude": "61.680833"
  },
  {
    "State": "استان سیستان و بلوچستان",
    "City": "محمدآباد",
    "latitude": "28.64805",
    "longitude": "59.02285"
  },
  {
    "State": "استان سیستان و بلوچستان",
    "City": "ایرانشهر",
    "latitude": "27.206414",
    "longitude": "60.688083"
  },
  {
    "State": "استان سیستان و بلوچستان",
    "City": "اسپکه",
    "latitude": "26.846994",
    "longitude": "60.171869"
  },
  {
    "State": "استان سیستان و بلوچستان",
    "City": "راسک",
    "latitude": "26.2368",
    "longitude": "61.398725"
  },
  {
    "State": "استان سیستان و بلوچستان",
    "City": "نصرت‌آباد",
    "latitude": "29.856422",
    "longitude": "59.978153"
  },
  {
    "State": "استان سیستان و بلوچستان",
    "City": "زاهدان",
    "latitude": "29.49996",
    "longitude": "60.86795"
  },
  {
    "State": "استان سیستان و بلوچستان",
    "City": "جالق",
    "latitude": "27.602275",
    "longitude": "62.705658"
  },
  {
    "State": "استان سیستان و بلوچستان",
    "City": "سرباز",
    "latitude": "26.637011",
    "longitude": "61.26095"
  },
  {
    "State": "استان سیستان و بلوچستان",
    "City": "نیک شهر",
    "latitude": "26.225128",
    "longitude": "60.217906"
  },
  {
    "State": "استان سیستان و بلوچستان",
    "City": "زابل",
    "latitude": "31.030825",
    "longitude": "61.495467"
  },
  {
    "State": "استان سیستان و بلوچستان",
    "City": "گلمورتی",
    "latitude": "27.482581",
    "longitude": "59.446811"
  },
  {
    "State": "استان سیستان و بلوچستان",
    "City": "کنارک",
    "latitude": "25.358872",
    "longitude": "60.398553"
  },
  {
    "State": "استان سیستان و بلوچستان",
    "City": "سراوان",
    "latitude": "27.366631",
    "longitude": "62.3387"
  },
  {
    "State": "استان سیستان و بلوچستان",
    "City": "محمدآباد",
    "latitude": "30.876117",
    "longitude": "61.453797"
  },
  {
    "State": "استان سیستان و بلوچستان",
    "City": "قصرقند",
    "latitude": "26.246839",
    "longitude": "60.751631"
  },
  {
    "State": "استان سیستان و بلوچستان",
    "City": "سوران",
    "latitude": "27.287711",
    "longitude": "62.000086"
  },
  {
    "State": "استان سیستان و بلوچستان",
    "City": "دوست محمد",
    "latitude": "31.143536",
    "longitude": "61.792969"
  },
  {
    "State": "استان سیستان و بلوچستان",
    "City": "سیرکان",
    "latitude": "26.829678",
    "longitude": "62.639694"
  },
  {
    "State": "استان سیستان و بلوچستان",
    "City": "محمدآباد",
    "latitude": "32.324319",
    "longitude": "52.110919"
  },
  {
    "State": "استان سیستان و بلوچستان",
    "City": "نوک‌آباد",
    "latitude": "28.5386",
    "longitude": "60.758161"
  },
  {
    "State": "استان سیستان و بلوچستان",
    "City": "میرجاوه",
    "latitude": "29.019394",
    "longitude": "61.451642"
  },
  {
    "State": "استان سیستان و بلوچستان",
    "City": "خاش",
    "latitude": "28.220881",
    "longitude": "61.211539"
  },
  {
    "State": "استان سیستان و بلوچستان",
    "City": "زابلی",
    "latitude": "27.13265",
    "longitude": "61.671714"
  },
  {
    "State": "استان سیستان و بلوچستان",
    "City": "نگور",
    "latitude": "25.388219",
    "longitude": "61.142011"
  },
  {
    "State": "استان سیستان و بلوچستان",
    "City": "بزمان",
    "latitude": "27.859428",
    "longitude": "60.176542"
  },
  {
    "State": "استان سیستان و بلوچستان",
    "City": "ادیمی",
    "latitude": "31.106389",
    "longitude": "61.416389"
  },
  {
    "State": "استان سیستان و بلوچستان",
    "City": "بنجار",
    "latitude": "31.042281",
    "longitude": "61.583056"
  },
  {
    "State": "استان سیستان و بلوچستان",
    "City": "بمپور",
    "latitude": "27.199903",
    "longitude": "60.477875"
  },
  {
    "State": "استان سیستان و بلوچستان",
    "City": "پیشین",
    "latitude": "26.085908",
    "longitude": "61.768314"
  },
  {
    "State": "استان سیستان و بلوچستان",
    "City": "بنت",
    "latitude": "26.305169",
    "longitude": "59.528231"
  },
  {
    "State": "استان سیستان و بلوچستان",
    "City": "فنوج",
    "latitude": "26.575211",
    "longitude": "59.642739"
  },
  {
    "State": "استان فارس",
    "City": "گراش",
    "latitude": "27.662231",
    "longitude": "54.136608"
  },
  {
    "State": "استان فارس",
    "City": "جهرم",
    "latitude": "28.49346",
    "longitude": "53.53302"
  },
  {
    "State": "استان فارس",
    "City": "جنت شهر",
    "latitude": "28.6538",
    "longitude": "54.6858"
  },
  {
    "State": "استان فارس",
    "City": "ایج",
    "latitude": "29.019428",
    "longitude": "54.246567"
  },
  {
    "State": "استان فارس",
    "City": "ایزدخواست",
    "latitude": "31.52023",
    "longitude": "52.12807"
  },
  {
    "State": "استان فارس",
    "City": "کنارتخته",
    "latitude": "29.529539",
    "longitude": "51.397889"
  },
  {
    "State": "استان فارس",
    "City": "مرودشت",
    "latitude": "29.872419",
    "longitude": "52.801419"
  },
  {
    "State": "استان فارس",
    "City": "داراب",
    "latitude": "28.750881",
    "longitude": "54.53745"
  },
  {
    "State": "استان فارس",
    "City": "فراشبند",
    "latitude": "28.86736",
    "longitude": "52.0851"
  },
  {
    "State": "استان فارس",
    "City": "جویم",
    "latitude": "28.249511",
    "longitude": "53.9841"
  },
  {
    "State": "استان فارس",
    "City": "فیروزآباد",
    "latitude": "28.86129",
    "longitude": "52.57725"
  },
  {
    "State": "استان فارس",
    "City": "کامفیروز",
    "latitude": "30.316419",
    "longitude": "52.199719"
  },
  {
    "State": "استان فارس",
    "City": "خنج",
    "latitude": "27.89413",
    "longitude": "53.44156"
  },
  {
    "State": "استان فارس",
    "City": "گله دار",
    "latitude": "27.6607",
    "longitude": "52.6587"
  },
  {
    "State": "استان فارس",
    "City": "بوانات",
    "latitude": "30.454139",
    "longitude": "53.650481"
  },
  {
    "State": "استان فارس",
    "City": "وراوی",
    "latitude": "27.465619",
    "longitude": "53.052461"
  },
  {
    "State": "استان فارس",
    "City": "بیرم",
    "latitude": "27.43255",
    "longitude": "53.51324"
  },
  {
    "State": "استان فارس",
    "City": "رونیز",
    "latitude": "29.191214",
    "longitude": "53.770503"
  },
  {
    "State": "استان فارس",
    "City": "دبیران",
    "latitude": "28.407281",
    "longitude": "54.183444"
  },
  {
    "State": "استان فارس",
    "City": "قادرآباد",
    "latitude": "30.27998",
    "longitude": "53.24776"
  },
  {
    "State": "استان فارس",
    "City": "فسا",
    "latitude": "28.93969",
    "longitude": "53.6466"
  },
  {
    "State": "استان فارس",
    "City": "مهر",
    "latitude": "27.554753",
    "longitude": "52.882892"
  },
  {
    "State": "استان فارس",
    "City": "سده",
    "latitude": "30.71152",
    "longitude": "52.17202"
  },
  {
    "State": "استان فارس",
    "City": "اوز",
    "latitude": "27.76265",
    "longitude": "53.997661"
  },
  {
    "State": "استان فارس",
    "City": "نودان",
    "latitude": "29.801761",
    "longitude": "51.694889"
  },
  {
    "State": "استان فارس",
    "City": "مشکان",
    "latitude": "29.476706",
    "longitude": "54.333017"
  },
  {
    "State": "استان فارس",
    "City": "سعادت شهر",
    "latitude": "30.07972",
    "longitude": "53.13757"
  },
  {
    "State": "استان فارس",
    "City": "خاوران",
    "latitude": "28.938056",
    "longitude": "53.315"
  },
  {
    "State": "استان فارس",
    "City": "آباده",
    "latitude": "31.16086",
    "longitude": "52.6506"
  },
  {
    "State": "استان فارس",
    "City": "ششده",
    "latitude": "28.94652",
    "longitude": "53.99753"
  },
  {
    "State": "استان فارس",
    "City": "کازرون",
    "latitude": "29.620811",
    "longitude": "51.654011"
  },
  {
    "State": "استان فارس",
    "City": "اشکنان",
    "latitude": "27.236489",
    "longitude": "53.597911"
  },
  {
    "State": "استان فارس",
    "City": "شهرپیر",
    "latitude": "28.311642",
    "longitude": "54.335275"
  },
  {
    "State": "استان فارس",
    "City": "قطب‌آباد",
    "latitude": "28.644839",
    "longitude": "53.642519"
  },
  {
    "State": "استان فارس",
    "City": "لپویی",
    "latitude": "29.799467",
    "longitude": "52.650747"
  },
  {
    "State": "استان فارس",
    "City": "لار",
    "latitude": "27.678769",
    "longitude": "54.338831"
  },
  {
    "State": "استان فارس",
    "City": "زرقان",
    "latitude": "29.776939",
    "longitude": "52.719997"
  },
  {
    "State": "استان فارس",
    "City": "سروستان",
    "latitude": "29.272161",
    "longitude": "53.221519"
  },
  {
    "State": "استان فارس",
    "City": "خشت",
    "latitude": "29.56044",
    "longitude": "51.33532"
  },
  {
    "State": "استان فارس",
    "City": "افزر",
    "latitude": "28.346061",
    "longitude": "52.971161"
  },
  {
    "State": "استان فارس",
    "City": "دهستان نوبندگان",
    "latitude": "28.853661",
    "longitude": "53.821519"
  },
  {
    "State": "استان فارس",
    "City": "سیدان",
    "latitude": "30.00755",
    "longitude": "53.00628"
  },
  {
    "State": "استان فارس",
    "City": "بنارویه",
    "latitude": "28.085047",
    "longitude": "54.048314"
  },
  {
    "State": "استان فارس",
    "City": "زاهدشهر",
    "latitude": "28.75285",
    "longitude": "53.79818"
  },
  {
    "State": "استان فارس",
    "City": "باب انار",
    "latitude": "28.97493",
    "longitude": "53.21764"
  },
  {
    "State": "استان فارس",
    "City": "فیروزآباد",
    "latitude": "33.898711",
    "longitude": "48.106511"
  },
  {
    "State": "استان فارس",
    "City": "لامرد",
    "latitude": "27.31711",
    "longitude": "53.22735"
  },
  {
    "State": "استان فارس",
    "City": "قیر",
    "latitude": "28.48701",
    "longitude": "53.03671"
  },
  {
    "State": "استان فارس",
    "City": "بیضا",
    "latitude": "29.973939",
    "longitude": "52.39995"
  },
  {
    "State": "استان فارس",
    "City": "میمند",
    "latitude": "28.8695",
    "longitude": "52.75243"
  },
  {
    "State": "استان فارس",
    "City": "استهبان",
    "latitude": "29.126281",
    "longitude": "54.039056"
  },
  {
    "State": "استان فارس",
    "City": "ارسنجان",
    "latitude": "29.912128",
    "longitude": "53.303681"
  },
  {
    "State": "استان فارس",
    "City": "شیراز",
    "latitude": "29.618961",
    "longitude": "52.532381"
  },
  {
    "State": "استان فارس",
    "City": "آباده طشک",
    "latitude": "29.808922",
    "longitude": "53.726856"
  },
  {
    "State": "استان فارس",
    "City": "نی ریز",
    "latitude": "29.201519",
    "longitude": "54.32475"
  },
  {
    "State": "استان فارس",
    "City": "اقلید",
    "latitude": "30.89869",
    "longitude": "52.69502"
  },
  {
    "State": "استان فارس",
    "City": "صفاشهر",
    "latitude": "30.6125",
    "longitude": "53.19715"
  },
  {
    "State": "استان فارس",
    "City": "مصیری",
    "latitude": "30.24541",
    "longitude": "51.52862"
  },
  {
    "State": "استان فارس",
    "City": "سورمق",
    "latitude": "31.03235",
    "longitude": "52.83903"
  },
  {
    "State": "استان فارس",
    "City": "اهل",
    "latitude": "27.209011",
    "longitude": "53.656989"
  },
  {
    "State": "استان فارس",
    "City": "قایمیه",
    "latitude": "29.850364",
    "longitude": "51.579389"
  },
  {
    "State": "استان فارس",
    "City": "داریان",
    "latitude": "29.562417",
    "longitude": "52.929108"
  },
  {
    "State": "استان فارس",
    "City": "کوار",
    "latitude": "29.196325",
    "longitude": "52.694294"
  },
  {
    "State": "استان فارس",
    "City": "بالاده",
    "latitude": "29.282281",
    "longitude": "51.93895"
  },
  {
    "State": "استان فارس",
    "City": "صغاد",
    "latitude": "31.19214",
    "longitude": "52.51991"
  },
  {
    "State": "استان فارس",
    "City": "خرامه",
    "latitude": "29.5",
    "longitude": "53.316661"
  },
  {
    "State": "استان فارس",
    "City": "بهمن",
    "latitude": "31.19203",
    "longitude": "52.48293"
  },
  {
    "State": "استان فارس",
    "City": "علامرودشت",
    "latitude": "27.620569",
    "longitude": "53.00685"
  },
  {
    "State": "استان قزوین",
    "City": "بیدستان",
    "latitude": "36.229817",
    "longitude": "50.123147"
  },
  {
    "State": "استان قزوین",
    "City": "بویین زهرا",
    "latitude": "35.76216",
    "longitude": "50.06043"
  },
  {
    "State": "استان قزوین",
    "City": "محمودآبادنمونه",
    "latitude": "36.285911",
    "longitude": "49.90875"
  },
  {
    "State": "استان قزوین",
    "City": "آبگرم",
    "latitude": "35.756181",
    "longitude": "49.287839"
  },
  {
    "State": "استان قزوین",
    "City": "خرمدشت",
    "latitude": "35.929167",
    "longitude": "49.5125"
  },
  {
    "State": "استان قزوین",
    "City": "رازمیان",
    "latitude": "36.538839",
    "longitude": "50.210719"
  },
  {
    "State": "استان قزوین",
    "City": "اسفرورین",
    "latitude": "35.93313",
    "longitude": "49.74684"
  },
  {
    "State": "استان قزوین",
    "City": "آبیک",
    "latitude": "36.046569",
    "longitude": "50.526581"
  },
  {
    "State": "استان قزوین",
    "City": "اقبالیه",
    "latitude": "36.235631",
    "longitude": "49.93215"
  },
  {
    "State": "استان قزوین",
    "City": "سیردان",
    "latitude": "36.646822",
    "longitude": "49.1886"
  },
  {
    "State": "استان قزوین",
    "City": "قزوین",
    "latitude": "36.310689",
    "longitude": "49.996239"
  },
  {
    "State": "استان قزوین",
    "City": "ارداق",
    "latitude": "36.053781",
    "longitude": "49.826708"
  },
  {
    "State": "استان قزوین",
    "City": "الوند",
    "latitude": "36.190219",
    "longitude": "50.083739"
  },
  {
    "State": "استان قزوین",
    "City": "سگزآباد",
    "latitude": "35.771978",
    "longitude": "49.930675"
  },
  {
    "State": "استان قزوین",
    "City": "دانسفهان",
    "latitude": "35.81339",
    "longitude": "49.74384"
  },
  {
    "State": "استان قزوین",
    "City": "معلم کلایه",
    "latitude": "36.451411",
    "longitude": "50.475911"
  },
  {
    "State": "استان قزوین",
    "City": "تاکستان",
    "latitude": "36.063981",
    "longitude": "49.695719"
  },
  {
    "State": "استان قزوین",
    "City": "اوج",
    "latitude": "35.57705",
    "longitude": "49.22078"
  },
  {
    "State": "استان قزوین",
    "City": "نرجه",
    "latitude": "35.991631",
    "longitude": "49.627861"
  },
  {
    "State": "استان قزوین",
    "City": "خاکعلی",
    "latitude": "36.131108",
    "longitude": "50.176028"
  },
  {
    "State": "استان قزوین",
    "City": "شال",
    "latitude": "35.90148",
    "longitude": "49.7718"
  },
  {
    "State": "استان قزوین",
    "City": "کوهین",
    "latitude": "36.376786",
    "longitude": "49.662569"
  },
  {
    "State": "استان قزوین",
    "City": "محمدیه",
    "latitude": "36.220792",
    "longitude": "50.183906"
  },
  {
    "State": "استان قم",
    "City": "جعفریه",
    "latitude": "34.7882",
    "longitude": "50.5854"
  },
  {
    "State": "استان قم",
    "City": "کهک",
    "latitude": "34.38911",
    "longitude": "50.86155"
  },
  {
    "State": "استان قم",
    "City": "قنوات",
    "latitude": "34.614167",
    "longitude": "51.028611"
  },
  {
    "State": "استان قم",
    "City": "دستجرد",
    "latitude": "34.552278",
    "longitude": "50.249336"
  },
  {
    "State": "استان قم",
    "City": "قم",
    "latitude": "34.64927",
    "longitude": "50.87789"
  },
  {
    "State": "استان کردستان",
    "City": "ارمرده",
    "latitude": "35.931036",
    "longitude": "45.796303"
  },
  {
    "State": "استان کردستان",
    "City": "دهگلان",
    "latitude": "35.283092",
    "longitude": "47.418578"
  },
  {
    "State": "استان کردستان",
    "City": "زرینه",
    "latitude": "36.059589",
    "longitude": "46.9167"
  },
  {
    "State": "استان کردستان",
    "City": "کانی سور",
    "latitude": "36.059706",
    "longitude": "45.74865"
  },
  {
    "State": "استان کردستان",
    "City": "قروه",
    "latitude": "35.167619",
    "longitude": "47.800061"
  },
  {
    "State": "استان کردستان",
    "City": "بانه",
    "latitude": "35.989411",
    "longitude": "45.890881"
  },
  {
    "State": "استان کردستان",
    "City": "مریوان",
    "latitude": "35.520019",
    "longitude": "46.176172"
  },
  {
    "State": "استان کردستان",
    "City": "سروآباد",
    "latitude": "35.318775",
    "longitude": "46.378294"
  },
  {
    "State": "استان کردستان",
    "City": "سنندج",
    "latitude": "35.31836",
    "longitude": "46.99674"
  },
  {
    "State": "استان کردستان",
    "City": "یاسوکند",
    "latitude": "36.28375",
    "longitude": "47.747789"
  },
  {
    "State": "استان کردستان",
    "City": "چناره",
    "latitude": "35.631739",
    "longitude": "46.3016"
  },
  {
    "State": "استان کردستان",
    "City": "دیواندره",
    "latitude": "35.916511",
    "longitude": "47.020942"
  },
  {
    "State": "استان کردستان",
    "City": "دزج",
    "latitude": "35.063686",
    "longitude": "47.966994"
  },
  {
    "State": "استان کردستان",
    "City": "بویین سفلی",
    "latitude": "35.93875",
    "longitude": "45.937511"
  },
  {
    "State": "استان کردستان",
    "City": "سریش‌آباد",
    "latitude": "35.24985",
    "longitude": "47.777953"
  },
  {
    "State": "استان کردستان",
    "City": "دلبران",
    "latitude": "35.244844",
    "longitude": "47.986169"
  },
  {
    "State": "استان کردستان",
    "City": "صاحب",
    "latitude": "36.200878",
    "longitude": "46.464219"
  },
  {
    "State": "استان کردستان",
    "City": "بیجار",
    "latitude": "35.87285",
    "longitude": "47.602369"
  },
  {
    "State": "استان کردستان",
    "City": "بابارشانی",
    "latitude": "35.677728",
    "longitude": "47.797264"
  },
  {
    "State": "استان کردستان",
    "City": "سقز",
    "latitude": "36.242581",
    "longitude": "46.266861"
  },
  {
    "State": "استان کردستان",
    "City": "موچش",
    "latitude": "35.055642",
    "longitude": "47.151344"
  },
  {
    "State": "استان کردستان",
    "City": "کامیاران",
    "latitude": "34.792436",
    "longitude": "46.933567"
  },
  {
    "State": "استان کردستان",
    "City": "شویشه",
    "latitude": "35.357331",
    "longitude": "46.678058"
  },
  {
    "State": "استان کرمان",
    "City": "سیرجان",
    "latitude": "29.44877",
    "longitude": "55.67952"
  },
  {
    "State": "استان کرمان",
    "City": "فهرج",
    "latitude": "28.9531",
    "longitude": "58.88457"
  },
  {
    "State": "استان کرمان",
    "City": "کشکوییه",
    "latitude": "30.53002",
    "longitude": "55.64976"
  },
  {
    "State": "استان کرمان",
    "City": "زرند",
    "latitude": "30.80778",
    "longitude": "56.56937"
  },
  {
    "State": "استان کرمان",
    "City": "گلباف",
    "latitude": "29.8802",
    "longitude": "57.7374"
  },
  {
    "State": "استان کرمان",
    "City": "ارزوییه",
    "latitude": "28.456161",
    "longitude": "56.358819"
  },
  {
    "State": "استان کرمان",
    "City": "مردهک",
    "latitude": "28.355667",
    "longitude": "58.160472"
  },
  {
    "State": "استان کرمان",
    "City": "زنگی‌آباد",
    "latitude": "30.41313",
    "longitude": "56.91268"
  },
  {
    "State": "استان کرمان",
    "City": "بافت",
    "latitude": "29.23258",
    "longitude": "56.59901"
  },
  {
    "State": "استان کرمان",
    "City": "کوهبنان",
    "latitude": "31.41302",
    "longitude": "56.28065"
  },
  {
    "State": "استان کرمان",
    "City": "دهج",
    "latitude": "30.69073",
    "longitude": "54.88167"
  },
  {
    "State": "استان کرمان",
    "City": "بردسیر",
    "latitude": "29.92975",
    "longitude": "56.56764"
  },
  {
    "State": "استان کرمان",
    "City": "عنبرآباد",
    "latitude": "28.475275",
    "longitude": "57.85"
  },
  {
    "State": "استان کرمان",
    "City": "پاریز",
    "latitude": "29.87501",
    "longitude": "55.74856"
  },
  {
    "State": "استان کرمان",
    "City": "بزنجان",
    "latitude": "29.250811",
    "longitude": "56.699231"
  },
  {
    "State": "استان کرمان",
    "City": "قلعه گنج",
    "latitude": "27.5251",
    "longitude": "57.8815"
  },
  {
    "State": "استان کرمان",
    "City": "راور",
    "latitude": "31.27068",
    "longitude": "56.80255"
  },
  {
    "State": "استان کرمان",
    "City": "چترود",
    "latitude": "30.6023",
    "longitude": "56.90709"
  },
  {
    "State": "استان کرمان",
    "City": "رابر",
    "latitude": "29.29025",
    "longitude": "56.91314"
  },
  {
    "State": "استان کرمان",
    "City": "یزدان شهر",
    "latitude": "30.865031",
    "longitude": "56.361289"
  },
  {
    "State": "استان کرمان",
    "City": "نجف شهر",
    "latitude": "29.386419",
    "longitude": "55.713661"
  },
  {
    "State": "استان کرمان",
    "City": "نگار",
    "latitude": "29.86175",
    "longitude": "56.8012"
  },
  {
    "State": "استان کرمان",
    "City": "اختیارآباد",
    "latitude": "30.328011",
    "longitude": "56.923339"
  },
  {
    "State": "استان کرمان",
    "City": "هجدک",
    "latitude": "30.759939",
    "longitude": "56.986519"
  },
  {
    "State": "استان کرمان",
    "City": "بهرمان",
    "latitude": "30.903608",
    "longitude": "55.730269"
  },
  {
    "State": "استان کرمان",
    "City": "رودبار",
    "latitude": "36.8231",
    "longitude": "49.425919"
  },
  {
    "State": "استان کرمان",
    "City": "محی‌آباد",
    "latitude": "30.073689",
    "longitude": "57.231331"
  },
  {
    "State": "استان کرمان",
    "City": "خانوک",
    "latitude": "30.71866",
    "longitude": "56.77858"
  },
  {
    "State": "استان کرمان",
    "City": "راین",
    "latitude": "29.598569",
    "longitude": "57.43645"
  },
  {
    "State": "استان کرمان",
    "City": "جوپار",
    "latitude": "30.060097",
    "longitude": "57.110739"
  },
  {
    "State": "استان کرمان",
    "City": "گلزار",
    "latitude": "29.7043",
    "longitude": "57.0383"
  },
  {
    "State": "استان کرمان",
    "City": "شهداد",
    "latitude": "30.413669",
    "longitude": "57.704069"
  },
  {
    "State": "استان کرمان",
    "City": "کهنوج",
    "latitude": "27.916667",
    "longitude": "57.716667"
  },
  {
    "State": "استان کرمان",
    "City": "جبالبارز",
    "latitude": "28.907306",
    "longitude": "57.885261"
  },
  {
    "State": "استان کرمان",
    "City": "بم",
    "latitude": "29.097875",
    "longitude": "58.349056"
  },
  {
    "State": "استان کرمان",
    "City": "رفسنجان",
    "latitude": "30.41035",
    "longitude": "56.00296"
  },
  {
    "State": "استان کرمان",
    "City": "جیرفت",
    "latitude": "28.669339",
    "longitude": "57.739381"
  },
  {
    "State": "استان کرمان",
    "City": "بروات",
    "latitude": "29.050119",
    "longitude": "58.402461"
  },
  {
    "State": "استان کرمان",
    "City": "منوجان",
    "latitude": "27.4095",
    "longitude": "57.4953"
  },
  {
    "State": "استان کرمان",
    "City": "شهربابک",
    "latitude": "30.12261",
    "longitude": "55.11895"
  },
  {
    "State": "استان کرمان",
    "City": "فاریاب",
    "latitude": "28.0652",
    "longitude": "57.270019"
  },
  {
    "State": "استان کرمان",
    "City": "اندوهجرد",
    "latitude": "30.233331",
    "longitude": "57.75"
  },
  {
    "State": "استان کرمان",
    "City": "نرماشیر",
    "latitude": "28.9543",
    "longitude": "58.694481"
  },
  {
    "State": "استان کرمان",
    "City": "باغین",
    "latitude": "30.19225",
    "longitude": "56.81462"
  },
  {
    "State": "استان کرمان",
    "City": "انار",
    "latitude": "30.86928",
    "longitude": "55.27341"
  },
  {
    "State": "استان کرمان",
    "City": "مس سرچشمه",
    "latitude": "29.993469",
    "longitude": "55.794411"
  },
  {
    "State": "استان کرمان",
    "City": "کرمان",
    "latitude": "30.28773",
    "longitude": "57.07878"
  },
  {
    "State": "استان کرمان",
    "City": "درب بهشت",
    "latitude": "29.2378",
    "longitude": "57.3328"
  },
  {
    "State": "استان کرمان",
    "City": "رودبار",
    "latitude": "28.0065",
    "longitude": "58.002497"
  },
  {
    "State": "استان کرمان",
    "City": "نودژ",
    "latitude": "27.542778",
    "longitude": "57.444719"
  },
  {
    "State": "استان کرمان",
    "City": "زیدآباد",
    "latitude": "29.600931",
    "longitude": "55.536789"
  },
  {
    "State": "استان کرمان",
    "City": "حسین‌آباد",
    "latitude": "30.841661",
    "longitude": "55.340639"
  },
  {
    "State": "استان کرمان",
    "City": "کیانشهر",
    "latitude": "31.2333",
    "longitude": "56.399997"
  },
  {
    "State": "استان کرمان",
    "City": "ماهان",
    "latitude": "30.050111",
    "longitude": "57.288919"
  },
  {
    "State": "استان کرمان",
    "City": "کاظم‌آباد",
    "latitude": "30.56722",
    "longitude": "56.84731"
  },
  {
    "State": "استان کرمان",
    "City": "نظام شهر",
    "latitude": "28.91695",
    "longitude": "58.547089"
  },
  {
    "State": "استان کهگیلویه و بویراحمد",
    "City": "سوق",
    "latitude": "30.860611",
    "longitude": "50.456669"
  },
  {
    "State": "استان کهگیلویه و بویراحمد",
    "City": "چرام",
    "latitude": "30.7509",
    "longitude": "50.7415"
  },
  {
    "State": "استان کهگیلویه و بویراحمد",
    "City": "لیکک",
    "latitude": "30.9005",
    "longitude": "50.1016"
  },
  {
    "State": "استان کهگیلویه و بویراحمد",
    "City": "مارگون",
    "latitude": "30.99237",
    "longitude": "51.08253"
  },
  {
    "State": "استان کهگیلویه و بویراحمد",
    "City": "سی سخت",
    "latitude": "30.86367",
    "longitude": "51.45621"
  },
  {
    "State": "استان کهگیلویه و بویراحمد",
    "City": "قلعه رییسی",
    "latitude": "31.189925",
    "longitude": "50.441292"
  },
  {
    "State": "استان کهگیلویه و بویراحمد",
    "City": "دیشموک",
    "latitude": "31.297211",
    "longitude": "50.403139"
  },
  {
    "State": "استان کهگیلویه و بویراحمد",
    "City": "یاسوج",
    "latitude": "30.67242",
    "longitude": "51.58146"
  },
  {
    "State": "استان کهگیلویه و بویراحمد",
    "City": "دهدشت",
    "latitude": "30.790289",
    "longitude": "50.558986"
  },
  {
    "State": "استان کهگیلویه و بویراحمد",
    "City": "دوگنبدان",
    "latitude": "30.356472",
    "longitude": "50.793875"
  },
  {
    "State": "استان کهگیلویه و بویراحمد",
    "City": "گراب سفلی",
    "latitude": "30.942606",
    "longitude": "50.896794"
  },
  {
    "State": "استان کهگیلویه و بویراحمد",
    "City": "باشت",
    "latitude": "30.36308",
    "longitude": "51.15658"
  },
  {
    "State": "استان کهگیلویه و بویراحمد",
    "City": "لنده",
    "latitude": "30.9791",
    "longitude": "50.424989"
  },
  {
    "State": "استان گلستان",
    "City": "دلند",
    "latitude": "37.030856",
    "longitude": "55.031344"
  },
  {
    "State": "استان گلستان",
    "City": "نوکنده",
    "latitude": "36.742361",
    "longitude": "53.906322"
  },
  {
    "State": "استان گلستان",
    "City": "نوده خاندوز",
    "latitude": "37.074881",
    "longitude": "55.262481"
  },
  {
    "State": "استان گلستان",
    "City": "سیمین شهر",
    "latitude": "37.011953",
    "longitude": "54.231756"
  },
  {
    "State": "استان گلستان",
    "City": "کلاله",
    "latitude": "37.37935",
    "longitude": "55.492919"
  },
  {
    "State": "استان گلستان",
    "City": "گمیش تپه",
    "latitude": "37.079875",
    "longitude": "54.076586"
  },
  {
    "State": "استان گلستان",
    "City": "گرگان",
    "latitude": "36.83556",
    "longitude": "54.43577"
  },
  {
    "State": "استان گلستان",
    "City": "فاضل‌آباد",
    "latitude": "36.899997",
    "longitude": "54.75"
  },
  {
    "State": "استان گلستان",
    "City": "رامیان",
    "latitude": "37.013361",
    "longitude": "55.144031"
  },
  {
    "State": "استان گلستان",
    "City": "مینودشت",
    "latitude": "37.229308",
    "longitude": "55.379747"
  },
  {
    "State": "استان گلستان",
    "City": "کردکوی",
    "latitude": "36.793319",
    "longitude": "54.108789"
  },
  {
    "State": "استان گلستان",
    "City": "گالیکش",
    "latitude": "37.270339",
    "longitude": "55.429739"
  },
  {
    "State": "استان گلستان",
    "City": "خان ببین",
    "latitude": "37.011981",
    "longitude": "54.985861"
  },
  {
    "State": "استان گلستان",
    "City": "نگین شهر",
    "latitude": "37.140436",
    "longitude": "55.166197"
  },
  {
    "State": "استان گلستان",
    "City": "انبارالوم",
    "latitude": "37.135914",
    "longitude": "54.6152"
  },
  {
    "State": "استان گلستان",
    "City": "علی‌آباد",
    "latitude": "36.905311",
    "longitude": "54.867561"
  },
  {
    "State": "استان گلستان",
    "City": "اینچه برون",
    "latitude": "37.455397",
    "longitude": "54.718025"
  },
  {
    "State": "استان گلستان",
    "City": "آزادشهر",
    "latitude": "37.08735",
    "longitude": "55.177789"
  },
  {
    "State": "استان گلستان",
    "City": "آق‌قلا",
    "latitude": "37.011781",
    "longitude": "54.454011"
  },
  {
    "State": "استان گلستان",
    "City": "سرخنکلاته",
    "latitude": "36.892414",
    "longitude": "54.568636"
  },
  {
    "State": "استان گیلان",
    "City": "رشت",
    "latitude": "37.27953",
    "longitude": "49.58542"
  },
  {
    "State": "استان گیلان",
    "City": "لاهیجان",
    "latitude": "37.20182",
    "longitude": "50.01157"
  },
  {
    "State": "استان لرستان",
    "City": "خرم‌آباد",
    "latitude": "36.781511",
    "longitude": "50.872339"
  },
  {
    "State": "استان لرستان",
    "City": "الیگودرز",
    "latitude": "33.404289",
    "longitude": "49.6914"
  },
  {
    "State": "استان لرستان",
    "City": "ازنا",
    "latitude": "33.45982",
    "longitude": "49.45495"
  },
  {
    "State": "استان لرستان",
    "City": "پلدختر",
    "latitude": "33.152661",
    "longitude": "47.713039"
  },
  {
    "State": "استان لرستان",
    "City": "بروجرد",
    "latitude": "33.89813",
    "longitude": "48.7499"
  },
  {
    "State": "استان لرستان",
    "City": "گراب",
    "latitude": "33.474058",
    "longitude": "47.236864"
  },
  {
    "State": "استان لرستان",
    "City": "خرم‌آباد",
    "latitude": "33.49864",
    "longitude": "48.35716"
  },
  {
    "State": "استان لرستان",
    "City": "نورآباد",
    "latitude": "34.073831",
    "longitude": "47.972211"
  },
  {
    "State": "استان لرستان",
    "City": "سراب دوره",
    "latitude": "33.562819",
    "longitude": "48.021381"
  },
  {
    "State": "استان لرستان",
    "City": "چغلوندی",
    "latitude": "33.647681",
    "longitude": "48.561689"
  },
  {
    "State": "استان لرستان",
    "City": "چالانچولان",
    "latitude": "33.663881",
    "longitude": "48.905381"
  },
  {
    "State": "استان لرستان",
    "City": "زاغه",
    "latitude": "33.5",
    "longitude": "48.70585"
  },
  {
    "State": "استان لرستان",
    "City": "اشترینان",
    "latitude": "34.01614",
    "longitude": "48.64128"
  },
  {
    "State": "استان لرستان",
    "City": "دورود",
    "latitude": "33.49283",
    "longitude": "49.06129"
  },
  {
    "State": "استان لرستان",
    "City": "کوهدشت",
    "latitude": "33.532936",
    "longitude": "47.607036"
  },
  {
    "State": "استان لرستان",
    "City": "نورآباد",
    "latitude": "30.11869",
    "longitude": "51.52526"
  },
  {
    "State": "استان لرستان",
    "City": "کونانی",
    "latitude": "33.401942",
    "longitude": "47.327181"
  },
  {
    "State": "استان لرستان",
    "City": "درب گنبد",
    "latitude": "33.689167",
    "longitude": "47.151667"
  },
  {
    "State": "استان لرستان",
    "City": "چقابل",
    "latitude": "33.281622",
    "longitude": "47.509311"
  },
  {
    "State": "استان لرستان",
    "City": "الشتر",
    "latitude": "33.86325",
    "longitude": "48.26171"
  },
  {
    "State": "استان لرستان",
    "City": "معمولان",
    "latitude": "33.378469",
    "longitude": "47.961467"
  },
  {
    "State": "استان لرستان",
    "City": "سپیددشت",
    "latitude": "33.22001",
    "longitude": "48.88144"
  },
  {
    "State": "استان لرستان",
    "City": "محمودوند",
    "latitude": "33.488961",
    "longitude": "48.030939"
  },
  {
    "State": "استان مازندران",
    "City": "ساری",
    "latitude": "36.55976",
    "longitude": "53.06496"
  },
  {
    "State": "استان هرمزگان",
    "City": "ابوموسی",
    "latitude": "25.875",
    "longitude": "55.0213"
  },
  {
    "State": "استان هرمزگان",
    "City": "هرمز",
    "latitude": "27.09578",
    "longitude": "56.45132"
  },
  {
    "State": "استان هرمزگان",
    "City": "میناب",
    "latitude": "27.1475",
    "longitude": "57.074369"
  },
  {
    "State": "استان هرمزگان",
    "City": "خمیر",
    "latitude": "26.950981",
    "longitude": "55.588389"
  },
  {
    "State": "استان هرمزگان",
    "City": "بندرعباس",
    "latitude": "27.18824",
    "longitude": "56.27648"
  },
  {
    "State": "استان هرمزگان",
    "City": "سیریک",
    "latitude": "26.517314",
    "longitude": "57.101108"
  },
  {
    "State": "استان هرمزگان",
    "City": "جناح",
    "latitude": "27.0163",
    "longitude": "54.283719"
  },
  {
    "State": "استان هرمزگان",
    "City": "کنگ",
    "latitude": "26.597319",
    "longitude": "54.938731"
  },
  {
    "State": "استان هرمزگان",
    "City": "فارغان",
    "latitude": "28.009211",
    "longitude": "56.253189"
  },
  {
    "State": "استان هرمزگان",
    "City": "گاوبندی",
    "latitude": "27.20851",
    "longitude": "53.03488"
  },
  {
    "State": "استان هرمزگان",
    "City": "درگهان",
    "latitude": "26.962719",
    "longitude": "56.064864"
  },
  {
    "State": "استان هرمزگان",
    "City": "زیارتعلی",
    "latitude": "27.740444",
    "longitude": "57.220561"
  },
  {
    "State": "استان هرمزگان",
    "City": "قشم",
    "latitude": "26.955711",
    "longitude": "56.266431"
  },
  {
    "State": "استان هرمزگان",
    "City": "رودان",
    "latitude": "27.445",
    "longitude": "57.18926"
  },
  {
    "State": "استان هرمزگان",
    "City": "بستک",
    "latitude": "27.198189",
    "longitude": "54.362831"
  },
  {
    "State": "استان هرمزگان",
    "City": "کیش",
    "latitude": "26.551133",
    "longitude": "53.998903"
  },
  {
    "State": "استان هرمزگان",
    "City": "سوزا",
    "latitude": "26.777558",
    "longitude": "56.063208"
  },
  {
    "State": "استان هرمزگان",
    "City": "فین",
    "latitude": "27.627422",
    "longitude": "55.902928"
  },
  {
    "State": "استان هرمزگان",
    "City": "دهبارز",
    "latitude": "27.4266",
    "longitude": "57.240161"
  },
  {
    "State": "استان همدان",
    "City": "برزول",
    "latitude": "34.213133",
    "longitude": "48.253975"
  },
  {
    "State": "استان همدان",
    "City": "شیرین سو",
    "latitude": "35.490614",
    "longitude": "48.448944"
  },
  {
    "State": "استان همدان",
    "City": "کبودراهنگ",
    "latitude": "35.20688",
    "longitude": "48.72269"
  },
  {
    "State": "استان همدان",
    "City": "سرکان",
    "latitude": "34.59946",
    "longitude": "48.44335"
  },
  {
    "State": "استان همدان",
    "City": "فرسفج",
    "latitude": "34.48835",
    "longitude": "48.289119"
  },
  {
    "State": "استان همدان",
    "City": "همدان",
    "latitude": "34.79874",
    "longitude": "48.51487"
  },
  {
    "State": "استان همدان",
    "City": "اسدآباد",
    "latitude": "34.78325",
    "longitude": "48.12514"
  },
  {
    "State": "استان همدان",
    "City": "دمق",
    "latitude": "35.44427",
    "longitude": "48.82249"
  },
  {
    "State": "استان همدان",
    "City": "بهار",
    "latitude": "34.9027",
    "longitude": "48.44247"
  },
  {
    "State": "استان همدان",
    "City": "ملایر",
    "latitude": "34.30119",
    "longitude": "48.81611"
  },
  {
    "State": "استان همدان",
    "City": "جوکار",
    "latitude": "34.432564",
    "longitude": "48.683461"
  },
  {
    "State": "استان همدان",
    "City": "سامن",
    "latitude": "34.20824",
    "longitude": "48.70595"
  },
  {
    "State": "استان همدان",
    "City": "فامنین",
    "latitude": "35.11658",
    "longitude": "48.97166"
  },
  {
    "State": "استان همدان",
    "City": "لالجین",
    "latitude": "34.97498",
    "longitude": "48.47827"
  },
  {
    "State": "استان همدان",
    "City": "زنگنه",
    "latitude": "34.152097",
    "longitude": "49.01095"
  },
  {
    "State": "استان همدان",
    "City": "گیان",
    "latitude": "34.175833",
    "longitude": "48.244167"
  },
  {
    "State": "استان همدان",
    "City": "ازندریان",
    "latitude": "34.50362",
    "longitude": "48.68852"
  },
  {
    "State": "استان همدان",
    "City": "فیروزان",
    "latitude": "34.360347",
    "longitude": "48.114264"
  },
  {
    "State": "استان همدان",
    "City": "رزن",
    "latitude": "35.38577",
    "longitude": "49.03315"
  },
  {
    "State": "استان همدان",
    "City": "مریانج",
    "latitude": "34.82757",
    "longitude": "48.45873"
  },
  {
    "State": "استان همدان",
    "City": "جورقان",
    "latitude": "34.887389",
    "longitude": "48.554861"
  },
  {
    "State": "استان همدان",
    "City": "تویسرکان",
    "latitude": "34.55322",
    "longitude": "48.44389"
  },
  {
    "State": "استان همدان",
    "City": "قهاوند",
    "latitude": "34.85894",
    "longitude": "49.00228"
  },
  {
    "State": "استان همدان",
    "City": "نهاوند",
    "latitude": "34.18926",
    "longitude": "48.37146"
  },
  {
    "State": "استان همدان",
    "City": "گل تپه",
    "latitude": "35.217511",
    "longitude": "48.207261"
  },
  {
    "State": "استان یزد",
    "City": "اردکان",
    "latitude": "32.31932",
    "longitude": "54.02621"
  },
  {
    "State": "استان یزد",
    "City": "طبس",
    "latitude": "33.59611",
    "longitude": "56.92808"
  },
  {
    "State": "استان یزد",
    "City": "عشق‌آباد",
    "latitude": "34.36873",
    "longitude": "56.92842"
  },
  {
    "State": "استان یزد",
    "City": "عشق‌آباد",
    "latitude": "36.0462",
    "longitude": "58.6866"
  },
  {
    "State": "استان یزد",
    "City": "حمیدیا",
    "latitude": "31.837597",
    "longitude": "54.378297"
  },
  {
    "State": "استان یزد",
    "City": "تفت",
    "latitude": "31.752186",
    "longitude": "54.217411"
  },
  {
    "State": "استان یزد",
    "City": "مروست",
    "latitude": "30.47624",
    "longitude": "54.20952"
  },
  {
    "State": "استان یزد",
    "City": "اشکذر",
    "latitude": "32.00315",
    "longitude": "54.20257"
  },
  {
    "State": "استان یزد",
    "City": "ابرکوه",
    "latitude": "31.12934",
    "longitude": "53.28317"
  },
  {
    "State": "استان یزد",
    "City": "ندوشن",
    "latitude": "32.025636",
    "longitude": "53.54855"
  },
  {
    "State": "استان فارس",
    "City": "اردکان",
    "latitude": "30.25",
    "longitude": "51.979931"
  },
  {
    "State": "استان یزد",
    "City": "میبد",
    "latitude": "32.23114",
    "longitude": "54.02239"
  },
  {
    "State": "استان یزد",
    "City": "دیهوک",
    "latitude": "33.294117",
    "longitude": "57.510869"
  },
  {
    "State": "استان یزد",
    "City": "شاهدیه",
    "latitude": "31.9498",
    "longitude": "54.2801"
  },
  {
    "State": "استان یزد",
    "City": "عقدا",
    "latitude": "32.440278",
    "longitude": "53.625556"
  },
  {
    "State": "استان یزد",
    "City": "مهریز",
    "latitude": "31.583631",
    "longitude": "54.445669"
  },
  {
    "State": "استان یزد",
    "City": "مهردشت",
    "latitude": "31.02301",
    "longitude": "53.35525"
  },
  {
    "State": "استان یزد",
    "City": "هرات",
    "latitude": "30.05854",
    "longitude": "54.36728"
  },
  {
    "State": "استان یزد",
    "City": "بافق",
    "latitude": "31.602869",
    "longitude": "55.39785"
  },
  {
    "State": "استان یزد",
    "City": "به‌آباد",
    "latitude": "31.87691",
    "longitude": "56.0204"
  },
  {
    "State": "استان یزد",
    "City": "زارچ",
    "latitude": "31.9903",
    "longitude": "54.231789"
  },
  {
    "State": "استان یزد",
    "City": "خضرآباد",
    "latitude": "31.865714",
    "longitude": "53.952414"
  },
  {
    "State": "استان یزد",
    "City": "احمدآباد",
    "latitude": "32.35411",
    "longitude": "53.99152"
  },
  {
    "State": "استان یزد",
    "City": "یزد",
    "latitude": "31.89582",
    "longitude": "54.36787"
  },
  {
    "State": "استان کرمانشاه",
    "City": "بیستون",
    "latitude": "34.385742",
    "longitude": "47.439"
  },
  {
    "State": "استان گیلان",
    "City": "پره سر",
    "latitude": "37.5828",
    "longitude": "49.086203"
  },
  {
    "State": "استان مرکزی",
    "City": "خمین",
    "latitude": "33.650739",
    "longitude": "50.0834"
  },
  {
    "State": "استان آذربایجان شرقی",
    "City": "بستان‌آباد",
    "latitude": "37.840858",
    "longitude": "46.831675"
  },
  {
    "State": "استان خوزستان",
    "City": "لالی",
    "latitude": "32.330369",
    "longitude": "49.0922"
  },
  {
    "State": "استان آذربایجان غربی",
    "City": "کشاورز",
    "latitude": "36.834511",
    "longitude": "46.353069"
  },
  {
    "State": "استان آذربایجان شرقی",
    "City": "مراغه",
    "latitude": "37.391986",
    "longitude": "46.238358"
  },
  {
    "State": "استان مرکزی",
    "City": "کمیجان",
    "latitude": "34.72088",
    "longitude": "49.32237"
  },
  {
    "State": "استان گیلان",
    "City": "بازارجمعه",
    "latitude": "37.407586",
    "longitude": "49.119158"
  },
  {
    "State": "استان آذربایجان غربی",
    "City": "نالوس",
    "latitude": "36.983717",
    "longitude": "45.145864"
  },
  {
    "State": "استان گیلان",
    "City": "منجیل",
    "latitude": "36.746261",
    "longitude": "49.397319"
  },
  {
    "State": "استان مرکزی",
    "City": "خنداب",
    "latitude": "34.391842",
    "longitude": "49.185067"
  },
  {
    "State": "استان مرکزی",
    "City": "شازند",
    "latitude": "33.92896",
    "longitude": "49.40695"
  },
  {
    "State": "استان مازندران",
    "City": "کله بست",
    "latitude": "36.639528",
    "longitude": "52.633175"
  },
  {
    "State": "استان آذربایجان شرقی",
    "City": "نظرکهریزی",
    "latitude": "37.35135",
    "longitude": "46.764044"
  },
  {
    "State": "استان خوزستان",
    "City": "بهبهان",
    "latitude": "30.596572",
    "longitude": "50.240372"
  },
  {
    "State": "استان آذربایجان شرقی",
    "City": "جلفا",
    "latitude": "38.938225",
    "longitude": "45.627069"
  },
  {
    "State": "استان مرکزی",
    "City": "آشتیان",
    "latitude": "34.5229",
    "longitude": "50.00401"
  },
  {
    "State": "استان آذربایجان شرقی",
    "City": "صوفیان",
    "latitude": "38.28204",
    "longitude": "45.98067"
  },
  {
    "State": "استان گیلان",
    "City": "املش",
    "latitude": "37.09569",
    "longitude": "50.18479"
  },
  {
    "State": "استان آذربایجان شرقی",
    "City": "بناب جدید",
    "latitude": "38.428031",
    "longitude": "45.907081"
  },
  {
    "State": "استان کرمانشاه",
    "City": "کرمانشاه",
    "latitude": "34.324487",
    "longitude": "47.073167"
  },
  {
    "State": "استان کرمانشاه",
    "City": "هرسین",
    "latitude": "34.276492",
    "longitude": "47.586111"
  },
  {
    "State": "استان آذربایجان شرقی",
    "City": "کلیبر",
    "latitude": "38.865647",
    "longitude": "47.042717"
  },
  {
    "State": "استان کرمانشاه",
    "City": "روانسر",
    "latitude": "34.716314",
    "longitude": "46.666583"
  },
  {
    "State": "استان خراسان رضوی",
    "City": "رباط سنگ",
    "latitude": "35.547239",
    "longitude": "59.196289"
  },
  {
    "State": "استان گیلان",
    "City": "شفت",
    "latitude": "37.164869",
    "longitude": "49.412061"
  },
  {
    "State": "استان مازندران",
    "City": "بهنمیر",
    "latitude": "36.665928",
    "longitude": "52.762131"
  },
  {
    "State": "استان مازندران",
    "City": "کیاسر",
    "latitude": "36.242364",
    "longitude": "53.539633"
  },
  {
    "State": "استان مرکزی",
    "City": "محلات",
    "latitude": "33.914881",
    "longitude": "50.45522"
  },
  {
    "State": "استان گیلان",
    "City": "رستم‌آباد",
    "latitude": "36.897761",
    "longitude": "49.5"
  },
  {
    "State": "استان گیلان",
    "City": "لوندویل",
    "latitude": "38.308381",
    "longitude": "48.869244"
  },
  {
    "State": "استان تهران",
    "City": "تجریش",
    "latitude": "35.799611",
    "longitude": "51.446"
  },
  {
    "State": "استان مرکزی",
    "City": "مهاجران",
    "latitude": "34.049789",
    "longitude": "49.430631"
  },
  {
    "State": "استان آذربایجان شرقی",
    "City": "ورزقان",
    "latitude": "38.50871",
    "longitude": "46.6465"
  },
  {
    "State": "استان آذربایجان شرقی",
    "City": "زرنق",
    "latitude": "38.09469",
    "longitude": "47.08291"
  },
  {
    "State": "استان خوزستان",
    "City": "دهدز",
    "latitude": "31.709642",
    "longitude": "50.289647"
  },
  {
    "State": "استان آذربایجان شرقی",
    "City": "هریس",
    "latitude": "38.25165",
    "longitude": "47.11544"
  },
  {
    "State": "استان کرمانشاه",
    "City": "سرپل ذهاب",
    "latitude": "34.464983",
    "longitude": "45.86395"
  },
  {
    "State": "استان هرمزگان",
    "City": "بندر لنگه",
    "latitude": "26.558339",
    "longitude": "54.878942"
  },
  {
    "State": "استان گلستان",
    "City": "بندر گز",
    "latitude": "36.78155",
    "longitude": "53.938256"
  },
  {
    "State": "استان آذربایجان شرقی",
    "City": "دوزدوزان",
    "latitude": "37.95",
    "longitude": "47.116661"
  },
  {
    "State": "استان گیلان",
    "City": "ماسال",
    "latitude": "37.363644",
    "longitude": "49.132892"
  },
  {
    "State": "",
    "City": "پرندک",
    "latitude": "35.363633",
    "longitude": "50.679889"
  },
  {
    "State": "",
    "City": "امیرکلا",
    "latitude": "36.595528",
    "longitude": "52.657883"
  },
  {
    "State": "",
    "City": "گنبد کاووس",
    "latitude": "37.252431",
    "longitude": "55.167514"
  },
  {
    "State": "",
    "City": "زیراب",
    "latitude": "36.176061",
    "longitude": "52.9768"
  },
  {
    "State": "",
    "City": "ایواوغلی",
    "latitude": "38.719911",
    "longitude": "45.216931"
  },
  {
    "State": "",
    "City": "کوزران",
    "latitude": "34.493381",
    "longitude": "46.599244"
  },
  {
    "State": "",
    "City": "ایزدشهر",
    "latitude": "36.6",
    "longitude": "52.134167"
  },
  {
    "State": "",
    "City": "زهره",
    "latitude": "30.469969",
    "longitude": "49.678531"
  },
  {
    "State": "",
    "City": "ریحان",
    "latitude": "30.747386",
    "longitude": "56.731689"
  },
  {
    "State": "",
    "City": "هادیشهر",
    "latitude": "38.840294",
    "longitude": "45.661681"
  },
  {
    "State": "",
    "City": "گلوگاه",
    "latitude": "36.307408",
    "longitude": "52.627669"
  },
  {
    "State": "",
    "City": "رحیم‌آباد",
    "latitude": "37.03151",
    "longitude": "50.3256"
  },
  {
    "State": "",
    "City": "سیه چشمه",
    "latitude": "39.062414",
    "longitude": "44.380803"
  },
  {
    "State": "",
    "City": "قائم‌شهر",
    "latitude": "36.463781",
    "longitude": "52.857417"
  },
  {
    "State": "",
    "City": "میانرود",
    "latitude": "32.227631",
    "longitude": "48.424783"
  },
  {
    "State": "",
    "City": "نکا",
    "latitude": "36.645569",
    "longitude": "53.302831"
  },
  {
    "State": "",
    "City": "ترکمانچای",
    "latitude": "37.581211",
    "longitude": "47.391353"
  },
  {
    "State": "",
    "City": "چابکسر",
    "latitude": "36.965739",
    "longitude": "50.565561"
  },
  {
    "State": "",
    "City": "سراب",
    "latitude": "37.939086",
    "longitude": "47.537258"
  },
  {
    "State": "",
    "City": "اقکند",
    "latitude": "37.257358",
    "longitude": "48.06495"
  },
  {
    "State": "",
    "City": "ماکو",
    "latitude": "39.293947",
    "longitude": "44.452333"
  },
  {
    "State": "",
    "City": "نور",
    "latitude": "36.567775",
    "longitude": "52.015481"
  },
  {
    "State": "",
    "City": "حمیل",
    "latitude": "33.936231",
    "longitude": "46.7736"
  },
  {
    "State": "",
    "City": "باسمنج",
    "latitude": "38.00083",
    "longitude": "46.47884"
  },
  {
    "State": "",
    "City": "امیدیه",
    "latitude": "30.762219",
    "longitude": "49.707461"
  },
  {
    "State": "",
    "City": "کلاچای",
    "latitude": "37.08036",
    "longitude": "50.39598"
  },
  {
    "State": "",
    "City": "سردشت",
    "latitude": "30.32635",
    "longitude": "50.217933"
  },
  {
    "State": "",
    "City": "بندر چارک",
    "latitude": "26.729261",
    "longitude": "54.278719"
  },
  {
    "State": "",
    "City": "بندر کنگان",
    "latitude": "27.8323",
    "longitude": "52.065711"
  },
  {
    "State": "",
    "City": "آذرشهر",
    "latitude": "37.762231",
    "longitude": "45.977461"
  },
  {
    "State": "",
    "City": "صحنه",
    "latitude": "34.4814",
    "longitude": "47.693281"
  },
  {
    "State": "",
    "City": "توتکابن",
    "latitude": "36.893172",
    "longitude": "49.525461"
  },
  {
    "State": "",
    "City": "مینوشهر",
    "latitude": "30.3535",
    "longitude": "48.197"
  },
  {
    "State": "",
    "City": "سطر",
    "latitude": "34.813069",
    "longitude": "47.461686"
  },
  {
    "State": "",
    "City": "ضیاءآباد",
    "latitude": "35.99332",
    "longitude": "49.44761"
  },
  {
    "State": "",
    "City": "خسروشهر",
    "latitude": "37.950672",
    "longitude": "46.051044"
  },
  {
    "State": "",
    "City": "سیاهکل",
    "latitude": "37.15472",
    "longitude": "49.87033"
  },
  {
    "State": "",
    "City": "نقده",
    "latitude": "36.963392",
    "longitude": "45.389561"
  },
  {
    "State": "",
    "City": "فریدونکنار",
    "latitude": "36.683039",
    "longitude": "52.520731"
  },
  {
    "State": "",
    "City": "خوش رودپی",
    "latitude": "36.370203",
    "longitude": "52.565278"
  },
  {
    "State": "",
    "City": "بندر ترکمن",
    "latitude": "36.890725",
    "longitude": "54.073314"
  },
  {
    "State": "",
    "City": "تنکابن",
    "latitude": "36.815919",
    "longitude": "50.879889"
  },
  {
    "State": "",
    "City": "عجب شیر",
    "latitude": "37.476792",
    "longitude": "45.894078"
  },
  {
    "State": "",
    "City": "باغملک",
    "latitude": "31.523136",
    "longitude": "49.885183"
  },
  {
    "State": "",
    "City": "شبستر",
    "latitude": "38.1778",
    "longitude": "45.7001"
  },
  {
    "State": "",
    "City": "ماسوله",
    "latitude": "37.156622",
    "longitude": "48.986122"
  },
  {
    "State": "",
    "City": "مرزیکلا",
    "latitude": "36.363756",
    "longitude": "52.732864"
  },
  {
    "State": "",
    "City": "غرق‌آباد",
    "latitude": "35.11166",
    "longitude": "49.83262"
  },
  {
    "State": "",
    "City": "ملاثانی",
    "latitude": "31.585464",
    "longitude": "48.883558"
  },
  {
    "State": "",
    "City": "چمستان",
    "latitude": "36.478589",
    "longitude": "52.110611"
  },
  {
    "State": "",
    "City": "باینگان",
    "latitude": "34.983133",
    "longitude": "46.276703"
  },
  {
    "State": "",
    "City": "ویس",
    "latitude": "31.4851",
    "longitude": "48.8746"
  },
  {
    "State": "",
    "City": "قلعه خواجه",
    "latitude": "32.205919",
    "longitude": "49.444361"
  },
  {
    "State": "",
    "City": "خامنه",
    "latitude": "38.19512",
    "longitude": "45.63066"
  },
  {
    "State": "",
    "City": "شرفخانه",
    "latitude": "38.1793",
    "longitude": "45.486369"
  },
  {
    "State": "",
    "City": "بره سر",
    "latitude": "36.772397",
    "longitude": "49.750844"
  },
  {
    "State": "",
    "City": "هیدوج",
    "latitude": "26.999361",
    "longitude": "62.121431"
  },
  {
    "State": "",
    "City": "جوانرود",
    "latitude": "34.79265",
    "longitude": "46.494842"
  },
  {
    "State": "",
    "City": "کلارآباد",
    "latitude": "36.665253",
    "longitude": "51.244125"
  },
  {
    "State": "",
    "City": "لشت نشا",
    "latitude": "37.35891",
    "longitude": "49.86295"
  },
  {
    "State": "",
    "City": "چابهار",
    "latitude": "25.293189",
    "longitude": "60.646319"
  },
  {
    "State": "",
    "City": "اهواز",
    "latitude": "31.32109",
    "longitude": "48.6777"
  },
  {
    "State": "",
    "City": "بخشایش",
    "latitude": "38.13402",
    "longitude": "46.9496"
  },
  {
    "State": "",
    "City": "مسجد سلیمان",
    "latitude": "31.944811",
    "longitude": "49.297908"
  },
  {
    "State": "",
    "City": "مقاومت",
    "latitude": "30.4477",
    "longitude": "48.1687"
  },
  {
    "State": "",
    "City": "نشتارود",
    "latitude": "36.748514",
    "longitude": "51.035969"
  },
  {
    "State": "",
    "City": "قوشچی",
    "latitude": "37.991383",
    "longitude": "45.040683"
  },
  {
    "State": "",
    "City": "ترک",
    "latitude": "37.615881",
    "longitude": "47.771475"
  },
  {
    "State": "",
    "City": "دزاب",
    "latitude": "32.299722",
    "longitude": "48.427222"
  },
  {
    "State": "",
    "City": "سیه رود",
    "latitude": "38.869375",
    "longitude": "46.00175"
  },
  {
    "State": "",
    "City": "گوراب زرمیخ",
    "latitude": "37.302125",
    "longitude": "49.220772"
  },
  {
    "State": "",
    "City": "آن‌ابد",
    "latitude": "35.250731",
    "longitude": "57.808483"
  },
  {
    "State": "",
    "City": "سرمست",
    "latitude": "34.024953",
    "longitude": "46.328903"
  },
  {
    "State": "",
    "City": "نیمور",
    "latitude": "33.881811",
    "longitude": "50.5762"
  },
  {
    "State": "",
    "City": "کرندغرب",
    "latitude": "34.279231",
    "longitude": "46.242561"
  },
  {
    "State": "",
    "City": "کیاکلا",
    "latitude": "36.575483",
    "longitude": "52.811169"
  },
  {
    "State": "",
    "City": "رامسر",
    "latitude": "36.9231",
    "longitude": "50.642939"
  },
  {
    "State": "",
    "City": "صومعه سرا",
    "latitude": "37.306619",
    "longitude": "49.311019"
  },
  {
    "State": "",
    "City": "دزفول",
    "latitude": "32.37925",
    "longitude": "48.397661"
  },
  {
    "State": "",
    "City": "خواجه",
    "latitude": "38.15334",
    "longitude": "46.58176"
  },
  {
    "State": "",
    "City": "کنگاور",
    "latitude": "34.501364",
    "longitude": "47.962867"
  },
  {
    "State": "",
    "City": "هشتپر",
    "latitude": "37.801408",
    "longitude": "48.903847"
  },
  {
    "State": "",
    "City": "بندر دیلم",
    "latitude": "30.052769",
    "longitude": "50.155794"
  },
  {
    "State": "",
    "City": "لیلان",
    "latitude": "37.011336",
    "longitude": "46.205794"
  },
  {
    "State": "",
    "City": "مؤمن‌آباد",
    "latitude": "33.59745",
    "longitude": "49.521108"
  },
  {
    "State": "",
    "City": "قروه در جزین",
    "latitude": "35.31305",
    "longitude": "49.1018"
  },
  {
    "State": "",
    "City": "ساوه",
    "latitude": "35.03209",
    "longitude": "50.36053"
  },
  {
    "State": "",
    "City": "کره‌ای",
    "latitude": "30.032789",
    "longitude": "53.717569"
  },
  {
    "State": "",
    "City": "بوکان",
    "latitude": "36.5214",
    "longitude": "46.2176"
  },
  {
    "State": "",
    "City": "زاویه",
    "latitude": "35.38416",
    "longitude": "50.56728"
  },
  {
    "State": "",
    "City": "شربیان",
    "latitude": "37.882425",
    "longitude": "47.101456"
  },
  {
    "State": "",
    "City": "قلعه تل",
    "latitude": "31.631939",
    "longitude": "49.890281"
  },
  {
    "State": "",
    "City": "کوهی خیل",
    "latitude": "36.688003",
    "longitude": "52.908647"
  },
  {
    "State": "",
    "City": "سرو",
    "latitude": "37.726944",
    "longitude": "44.642931"
  },
  {
    "State": "",
    "City": "میرآباد",
    "latitude": "36.406511",
    "longitude": "45.370722"
  },
  {
    "State": "",
    "City": "گتاب",
    "latitude": "36.430319",
    "longitude": "52.656867"
  },
  {
    "State": "",
    "City": "مرند",
    "latitude": "38.43673",
    "longitude": "45.78896"
  },
  {
    "State": "",
    "City": "بایگ",
    "latitude": "35.377778",
    "longitude": "59.035153"
  },
  {
    "State": "",
    "City": "میانه",
    "latitude": "37.426567",
    "longitude": "47.710456"
  },
  {
    "State": "",
    "City": "آستانه",
    "latitude": "33.885981",
    "longitude": "49.353411"
  },
  {
    "State": "",
    "City": "شادگان",
    "latitude": "30.645261",
    "longitude": "48.659319"
  },
  {
    "State": "",
    "City": "هلشی",
    "latitude": "34.110561",
    "longitude": "47.089883"
  },
  {
    "State": "",
    "City": "اشنویه",
    "latitude": "37.040669",
    "longitude": "45.093572"
  },